{
  "lastUpdated": "2026-07-05T22:29:34+00:00",
  "dataVersion": "2.0",
  "totalShops": 1554,
  "processedPDFs": [
    "https://happy-kaimonoken.info/wp-content/uploads/2026/06/daiten_260601.pdf",
    "https://happy-kaimonoken.info/wp-content/uploads/2026/06/tempo_260629.pdf"
  ],
  "discoveredPDFs": [
    "https://happy-kaimonoken.info/wp-content/uploads/2026/06/daiten_260601.pdf",
    "https://happy-kaimonoken.info/wp-content/uploads/2026/06/tempo_260629.pdf"
  ],
  "shops": [
    {
      "name": "中央区観光情報センター",
      "address": "京橋2-2-1 京橋エドグランB1階",
      "phoneNumber": "03-6262-6481",
      "businessCategory": "観光案内",
      "businessCategoryCode": 9,
      "district": "京橋",
      "isLargeRetailer": false,
      "coordinate": {
        "latitude": 35.6773686,
        "longitude": 139.7694908
      }
    },
    {
      "name": "俺のフレンチ銀座",
      "address": "銀座1-8-19 ONE GINZA B1F",
      "phoneNumber": "03-6264-4921",
      "businessCategory": "フレンチ",
      "businessCategoryCode": 8,
      "district": "銀座",
      "isLargeRetailer": false,
      "coordinate": {
        "latitude": 35.6743274,
        "longitude": 139.7685683
      }
    },
    {
      "name": "俺のイタリアン銀座",
      "address": "銀座1-8-19 ONE GINZA B1F",
      "phoneNumber": "03-5579-9915",
      "businessCategory": "イタリアン",
      "businessCategoryCode": 8,
      "district": "銀座",
      "isLargeRetailer": false,
      "coordinate": {
        "latitude": 35.6743274,
        "longitude": 139.7685683
      }
    },
    {
      "name": "ＯＷＮＤＡＹＳ マロニエゲート銀座１店",
      "address": "銀座2-2-14 マロニエゲート銀座1-3階",
      "phoneNumber": "0120-900-298",
      "businessCategory": "眼鏡店",
      "businessCategoryCode": 6,
      "district": "銀座",
      "isLargeRetailer": true,
      "coordinate": {
        "latitude": 35.674364,
        "longitude": 139.765398
      }
    },
    {
      "name": "ブラッスリーポール・ボキューズ銀座",
      "address": "銀座2-2-14 マロニエゲート銀座1-10F",
      "phoneNumber": "03-5159-0321",
      "businessCategory": "フレンチ",
      "businessCategoryCode": 8,
      "district": "銀座",
      "isLargeRetailer": false,
      "coordinate": {
        "latitude": 35.674364,
        "longitude": 139.765398
      }
    },
    {
      "name": "江戸前肉割烹 宮下",
      "address": "銀座2-2-14 マロニエゲート銀座1-12F",
      "phoneNumber": "03-3538-4129",
      "businessCategory": "すき焼き",
      "businessCategoryCode": 8,
      "district": "銀座",
      "isLargeRetailer": false,
      "coordinate": {
        "latitude": 35.674364,
        "longitude": 139.765398
      }
    },
    {
      "name": "ハンズ 銀座店",
      "address": "銀座2-2-14",
      "phoneNumber": "03-3538-0109",
      "businessCategory": "雑貨等小売店",
      "businessCategoryCode": 1,
      "district": "銀座",
      "isLargeRetailer": true,
      "coordinate": {
        "latitude": 35.6743799,
        "longitude": 139.765406
      }
    },
    {
      "name": "ニトリEXPRESS銀座ロフト店",
      "address": "銀座2-4-6 ベルビア館6階",
      "phoneNumber": "070-1486-9411",
      "businessCategory": "インテリア用品",
      "businessCategoryCode": 5,
      "district": "銀座",
      "isLargeRetailer": true,
      "coordinate": {
        "latitude": 35.6740368,
        "longitude": 139.7663383
      }
    },
    {
      "name": "銀座伊東屋",
      "address": "銀座2-7-15",
      "phoneNumber": "03-3561-8311",
      "businessCategory": "文房具店",
      "businessCategoryCode": 1,
      "district": "銀座",
      "isLargeRetailer": true,
      "coordinate": {
        "latitude": 35.6729807,
        "longitude": 139.7673835
      }
    },
    {
      "name": "オーケー銀座店",
      "address": "銀座3-2-1 マロニエゲート銀座2 B1－B2",
      "phoneNumber": "03-3528-6531",
      "businessCategory": "スーパーマーケット",
      "businessCategoryCode": 3,
      "district": "銀座",
      "isLargeRetailer": true,
      "coordinate": {
        "latitude": 35.6737054,
        "longitude": 139.7651517
      }
    },
    {
      "name": "ジーユー マロニエゲート銀座店",
      "address": "銀座3-2-1 マロニエゲート銀座2-5F",
      "phoneNumber": "03-6228-7850",
      "businessCategory": "アパレル",
      "businessCategoryCode": 2,
      "district": "銀座",
      "isLargeRetailer": true,
      "coordinate": {
        "latitude": 35.6737054,
        "longitude": 139.7651517
      }
    },
    {
      "name": "日月火　ＺＯＥ銀座店",
      "address": "銀座3-3-1 ZOE銀座6F",
      "phoneNumber": "03-3538-7788",
      "businessCategory": "飲食店",
      "businessCategoryCode": 8,
      "district": "銀座",
      "isLargeRetailer": false,
      "coordinate": {
        "latitude": 35.6734047,
        "longitude": 139.7658386
      }
    },
    {
      "name": "無印良品 銀座",
      "address": "銀座3-3-5",
      "phoneNumber": "03-3538-1311",
      "businessCategory": "小売業",
      "businessCategoryCode": 7,
      "district": "銀座",
      "isLargeRetailer": true,
      "coordinate": {
        "latitude": 35.6740941,
        "longitude": 139.7659354
      }
    },
    {
      "name": "石臼挽き蕎麦 箱根暁庵銀座三越店",
      "address": "銀座4-6-16 三越銀座店11階",
      "phoneNumber": "03-6228-6918",
      "businessCategory": "飲食店",
      "businessCategoryCode": 8,
      "district": "銀座",
      "isLargeRetailer": false,
      "coordinate": {
        "latitude": 35.6712864,
        "longitude": 139.7657382
      }
    },
    {
      "name": "GinzaNovo",
      "address": "銀座5-2-1 GinzaNovo B1F センターオフィス",
      "phoneNumber": "03-3571-0109",
      "businessCategory": "ショッピングセンター",
      "businessCategoryCode": 9,
      "district": "銀座",
      "isLargeRetailer": true,
      "coordinate": {
        "latitude": 35.6722448,
        "longitude": 139.7624127
      }
    },
    {
      "name": "鳥と手打ちそば とり数寄 銀座ノボ店",
      "address": "銀座5-2-1 銀座ノボ11Ｆ",
      "phoneNumber": "03-6264-5266",
      "businessCategory": "飲食店",
      "businessCategoryCode": 8,
      "district": "銀座",
      "isLargeRetailer": false,
      "coordinate": {
        "latitude": 35.672011,
        "longitude": 139.762044
      }
    },
    {
      "name": "ＥＸＩＴＭＥＬＳＡ（メルサ銀座五丁目店）",
      "address": "銀座5-7-10",
      "phoneNumber": "03-3573-5511",
      "businessCategory": "ショッピングセンター",
      "businessCategoryCode": 9,
      "district": "銀座",
      "isLargeRetailer": true,
      "coordinate": {
        "latitude": 35.6707776,
        "longitude": 139.7639811
      }
    },
    {
      "name": "ライオンギンザ５丁目店",
      "address": "銀座5-8-1 GINZA PLACE B2F",
      "phoneNumber": "03-3571-5371",
      "businessCategory": "飲食店",
      "businessCategoryCode": 8,
      "district": "銀座",
      "isLargeRetailer": false,
      "coordinate": {
        "latitude": 35.6708743,
        "longitude": 139.7649423
      }
    },
    {
      "name": "春水堂　銀座店",
      "address": "銀座5-8-1 GINZA PLACE B1F",
      "phoneNumber": "03-6263-8344",
      "businessCategory": "台湾カフェ・飲食",
      "businessCategoryCode": 8,
      "district": "銀座",
      "isLargeRetailer": false,
      "coordinate": {
        "latitude": 35.6708743,
        "longitude": 139.7649423
      }
    },
    {
      "name": "コスメディカルクリニックシンシア",
      "address": "銀座6-9-2 クロサワビル10F",
      "phoneNumber": "03-6281-4100",
      "businessCategory": "皮膚科・形成外科",
      "businessCategoryCode": 9,
      "district": "銀座",
      "isLargeRetailer": false,
      "coordinate": {
        "latitude": 35.6705177,
        "longitude": 139.7636022
      }
    },
    {
      "name": "ユニクロ銀座店",
      "address": "銀座6-9-5",
      "phoneNumber": "03-6252-5181",
      "businessCategory": "衣料品",
      "businessCategoryCode": 2,
      "district": "銀座",
      "isLargeRetailer": true,
      "coordinate": {
        "latitude": 35.6702448,
        "longitude": 139.7634686
      }
    },
    {
      "name": "ドン・キホーテ銀座本館",
      "address": "銀座8-10 銀座ナイン3号館",
      "phoneNumber": "0570-023-811",
      "businessCategory": "小売業",
      "businessCategoryCode": 7,
      "district": "銀座",
      "isLargeRetailer": true,
      "coordinate": {
        "latitude": 35.667122,
        "longitude": 139.7618936
      }
    },
    {
      "name": "トモズ コレド日本橋店",
      "address": "日本橋1-4-1",
      "phoneNumber": "03-6225-2861",
      "businessCategory": "医療品、化粧品、雑貨等の販売",
      "businessCategoryCode": 1,
      "district": "日本橋",
      "isLargeRetailer": true,
      "coordinate": {
        "latitude": 35.6826155,
        "longitude": 139.7746661
      }
    },
    {
      "name": "日本橋 西川",
      "address": "日本橋1-4-1 コレド日本橋地下1階",
      "phoneNumber": "03-3271-5531",
      "businessCategory": "寝具小売業",
      "businessCategoryCode": 5,
      "district": "日本橋",
      "isLargeRetailer": true,
      "coordinate": {
        "latitude": 35.6825249,
        "longitude": 139.7746156
      }
    },
    {
      "name": "丸善 日本橋店",
      "address": "日本橋2-3-10",
      "phoneNumber": "03-6214-2001",
      "businessCategory": "書店",
      "businessCategoryCode": 7,
      "district": "日本橋",
      "isLargeRetailer": true,
      "coordinate": {
        "latitude": 35.68117230000001,
        "longitude": 139.7725066
      }
    },
    {
      "name": "ビックカメラ 日本橋三越",
      "address": "日本橋室町1-4-1",
      "phoneNumber": "03-5542-1111",
      "businessCategory": "家電・携帯電話・パソコン販売",
      "businessCategoryCode": 6,
      "district": "日本橋",
      "isLargeRetailer": true,
      "coordinate": {
        "latitude": 35.6850975,
        "longitude": 139.7740739
      }
    },
    {
      "name": "㈱ＪＴＢ 日本橋コレド室町店",
      "address": "日本橋室町2-2-1 コレド室町1-B1階",
      "phoneNumber": "03-6738-4122",
      "businessCategory": "旅行",
      "businessCategoryCode": 9,
      "district": "日本橋",
      "isLargeRetailer": false,
      "coordinate": {
        "latitude": 35.6865187,
        "longitude": 139.7740345
      }
    },
    {
      "name": "日本橋案内所",
      "address": "日本橋室町2-2-1 コレド室町1-B1階",
      "phoneNumber": "03-3242-0010",
      "businessCategory": "観光案内所",
      "businessCategoryCode": 9,
      "district": "日本橋",
      "isLargeRetailer": false,
      "coordinate": {
        "latitude": 35.6865187,
        "longitude": 139.7740345
      }
    },
    {
      "name": "タロー書房",
      "address": "日本橋室町2-2-1 コレド室町1-B1階",
      "phoneNumber": "03-3241-2701",
      "businessCategory": "書籍",
      "businessCategoryCode": 7,
      "district": "日本橋",
      "isLargeRetailer": false,
      "coordinate": {
        "latitude": 35.6865187,
        "longitude": 139.7740345
      }
    },
    {
      "name": "刃物の木屋",
      "address": "日本橋室町2-2-1 コレド室町1-1階",
      "phoneNumber": "03-3241-0110",
      "businessCategory": "刃物",
      "businessCategoryCode": 7,
      "district": "日本橋",
      "isLargeRetailer": false,
      "coordinate": {
        "latitude": 35.6865187,
        "longitude": 139.7740345
      }
    },
    {
      "name": "日本橋かに福コレド室町１",
      "address": "日本橋室町2-2-1 コレド室町1-3階",
      "phoneNumber": "03-6265-1577",
      "businessCategory": "和食",
      "businessCategoryCode": 8,
      "district": "日本橋",
      "isLargeRetailer": false,
      "coordinate": {
        "latitude": 35.6865187,
        "longitude": 139.7740345
      }
    },
    {
      "name": "ビストロ石川亭 ＣＯＲＥＤＯ室町店",
      "address": "日本橋室町2-2-1 コレド室町1-3階",
      "phoneNumber": "03-6225-2010",
      "businessCategory": "洋食",
      "businessCategoryCode": 8,
      "district": "日本橋",
      "isLargeRetailer": false,
      "coordinate": {
        "latitude": 35.6865187,
        "longitude": 139.7740345
      }
    },
    {
      "name": "蕎麦割烹 稲田 コレド室町店",
      "address": "日本橋室町2-2-1 コレド室町1-3階",
      "phoneNumber": "03-6262-1490",
      "businessCategory": "蕎麦割烹",
      "businessCategoryCode": 8,
      "district": "日本橋",
      "isLargeRetailer": false,
      "coordinate": {
        "latitude": 35.6865187,
        "longitude": 139.7740345
      }
    },
    {
      "name": "房家 日本橋店",
      "address": "日本橋室町2-2-1 コレド室町1-3階",
      "phoneNumber": "03-6225-2347",
      "businessCategory": "焼肉店",
      "businessCategoryCode": 8,
      "district": "日本橋",
      "isLargeRetailer": false,
      "coordinate": {
        "latitude": 35.6865187,
        "longitude": 139.7740345
      }
    },
    {
      "name": "ざくろ室町店",
      "address": "日本橋室町2-2-1 コレド室町",
      "phoneNumber": "03-3241-4841",
      "businessCategory": "和食",
      "businessCategoryCode": 8,
      "district": "日本橋",
      "isLargeRetailer": false,
      "coordinate": {
        "latitude": 35.6865187,
        "longitude": 139.7740345
      }
    },
    {
      "name": "日本橋玉ゐ コレド室町店",
      "address": "日本橋室町2-3-1 コレド室町2-B1F",
      "phoneNumber": "03-6262-3125",
      "businessCategory": "和食",
      "businessCategoryCode": 8,
      "district": "日本橋",
      "isLargeRetailer": false,
      "coordinate": {
        "latitude": 35.6868974,
        "longitude": 139.7748465
      }
    },
    {
      "name": "牡蠣場北海道厚岸 コレド室町店",
      "address": "日本橋室町2-3-1 コレド室町2-1階",
      "phoneNumber": "03-6262-3144",
      "businessCategory": "飲食店",
      "businessCategoryCode": 8,
      "district": "日本橋",
      "isLargeRetailer": false,
      "coordinate": {
        "latitude": 35.6868974,
        "longitude": 139.7748465
      }
    },
    {
      "name": "博多もつ鍋やまやコレド室町店",
      "address": "日本橋室町2-3-1 コレド室町2-2F",
      "phoneNumber": "03-5202-8080",
      "businessCategory": "飲食業",
      "businessCategoryCode": 8,
      "district": "日本橋",
      "isLargeRetailer": false,
      "coordinate": {
        "latitude": 35.6868974,
        "longitude": 139.7748465
      }
    },
    {
      "name": "株式会社にんべん",
      "address": "日本橋室町2-3-1",
      "phoneNumber": "03-3241-0241",
      "businessCategory": "かつおぶし専門店",
      "businessCategoryCode": 3,
      "district": "日本橋",
      "isLargeRetailer": false,
      "coordinate": {
        "latitude": 35.686843,
        "longitude": 139.7748237
      }
    },
    {
      "name": "鶴屋吉信東京店",
      "address": "日本橋室町1-5-5 コレド室町3-1階",
      "phoneNumber": "03-3243-0551",
      "businessCategory": "和菓子",
      "businessCategoryCode": 3,
      "district": "日本橋",
      "isLargeRetailer": false,
      "coordinate": {
        "latitude": 35.6861318,
        "longitude": 139.7745133
      }
    },
    {
      "name": "Cafe&Restaurant CENTRALE",
      "address": "晴海5-2-31 ららテラスHARUMI FLAG1F 1060",
      "phoneNumber": "03-5534-9666",
      "businessCategory": "カフェ・レストラン",
      "businessCategoryCode": 8,
      "district": "晴海",
      "isLargeRetailer": false,
      "coordinate": {
        "latitude": 35.6512699,
        "longitude": 139.7743843
      }
    },
    {
      "name": "FEERIE AVEDA HARUMI",
      "address": "晴海5-2-31 ららテラスHARUMI FLAG 3F",
      "phoneNumber": "03-6225-0593",
      "businessCategory": "美容室",
      "businessCategoryCode": 9,
      "district": "晴海",
      "isLargeRetailer": false,
      "coordinate": {
        "latitude": 35.6512699,
        "longitude": 139.7743843
      }
    },
    {
      "name": "医療法人社団晴月会　晴海耳鼻咽喉科",
      "address": "晴海5-2-31 ららテラスHARUMI FLAG 3F",
      "phoneNumber": "03-5548-3387",
      "businessCategory": "耳鼻咽喉科",
      "businessCategoryCode": 9,
      "district": "晴海",
      "isLargeRetailer": false,
      "coordinate": {
        "latitude": 35.6512699,
        "longitude": 139.7743843
      }
    },
    {
      "name": "マツモトキヨシ ららテラスHARUMI FLAG店",
      "address": "晴海5-2-31 1階 10200",
      "phoneNumber": "03-3520-8765",
      "businessCategory": "ドラッグストア",
      "businessCategoryCode": 1,
      "district": "晴海",
      "isLargeRetailer": true,
      "coordinate": {
        "latitude": 35.6514134,
        "longitude": 139.7743756
      }
    },
    {
      "name": "サミットストアららテラス HARUMI FLAG店",
      "address": "晴海5-2-31",
      "phoneNumber": "03-3533-3310",
      "businessCategory": "スーパーマーケット",
      "businessCategoryCode": 3,
      "district": "晴海",
      "isLargeRetailer": true,
      "coordinate": {
        "latitude": 35.6514134,
        "longitude": 139.7743756
      }
    },
    {
      "name": "株式会社ヤマダデンキＬＡＢＩ東京八重洲",
      "address": "八重洲1-5-22",
      "phoneNumber": "03-3510-9098",
      "businessCategory": "家電販売",
      "businessCategoryCode": 6,
      "district": "八重洲",
      "isLargeRetailer": true,
      "coordinate": {
        "latitude": 35.6821203,
        "longitude": 139.7707003
      }
    },
    {
      "name": "目利きの銀次　東京ミッドタウン八重洲店",
      "address": "八重洲2-2-1 東京ミッドタウン八重洲3階",
      "phoneNumber": "03-5299-5188",
      "businessCategory": "居酒屋",
      "businessCategoryCode": 8,
      "district": "八重洲",
      "isLargeRetailer": false,
      "coordinate": {
        "latitude": 35.6794084,
        "longitude": 139.7689311
      }
    },
    {
      "name": "山内農場　東京ミッドタウン八重洲店",
      "address": "八重洲2-2-1 東京ミッドタウン八重洲3階",
      "phoneNumber": "03-5299-0188",
      "businessCategory": "居酒屋",
      "businessCategoryCode": 8,
      "district": "八重洲",
      "isLargeRetailer": false,
      "coordinate": {
        "latitude": 35.6794084,
        "longitude": 139.7689311
      }
    },
    {
      "name": "FLOWS GRILL BAR 東京ミッドタウン八重洲店",
      "address": "八重洲2-2-1 東京ミッドタウン八重洲3階",
      "phoneNumber": "03-5299-5088",
      "businessCategory": "カフェバー",
      "businessCategoryCode": 8,
      "district": "八重洲",
      "isLargeRetailer": false,
      "coordinate": {
        "latitude": 35.6794084,
        "longitude": 139.7689311
      }
    },
    {
      "name": "セブンイレブン中央区明石町店",
      "address": "明石町2-1",
      "phoneNumber": "03-3248-0478",
      "businessCategory": "コンビニエンスストア",
      "businessCategoryCode": 1,
      "district": "明石町",
      "isLargeRetailer": false,
      "coordinate": {
        "latitude": 35.668868,
        "longitude": 139.7775123
      }
    },
    {
      "name": "セブンイレブン聖路加タワー店",
      "address": "明石町8-1 聖路加タワー1階",
      "phoneNumber": "03-3547-7881",
      "businessCategory": "コンビニエンスストア",
      "businessCategoryCode": 1,
      "district": "明石町",
      "isLargeRetailer": false,
      "coordinate": {
        "latitude": 35.6669425,
        "longitude": 139.7784923
      }
    },
    {
      "name": "ローソンＨ入船一丁目店",
      "address": "入船1-3-1",
      "phoneNumber": "03-3523-1150",
      "businessCategory": "コンビニエンスストア",
      "businessCategoryCode": 1,
      "district": "入船",
      "isLargeRetailer": false,
      "coordinate": {
        "latitude": 35.6727964,
        "longitude": 139.7765901
      }
    },
    {
      "name": "セブンイレブン中央区入船３丁目店",
      "address": "入船3-1-13",
      "phoneNumber": "03-5541-4028",
      "businessCategory": "コンビニエンスストア",
      "businessCategoryCode": 1,
      "district": "入船",
      "isLargeRetailer": false,
      "coordinate": {
        "latitude": 35.6712577,
        "longitude": 139.7758027
      }
    },
    {
      "name": "セブンイレブン勝どきグロウスタウン店",
      "address": "勝どき1-3-3 アパートメンツタワー勝どき1F",
      "phoneNumber": "03-6220-4557",
      "businessCategory": "コンビニエンスストア",
      "businessCategoryCode": 1,
      "district": "勝どき",
      "isLargeRetailer": false,
      "coordinate": {
        "latitude": 35.6611848,
        "longitude": 139.7769037
      }
    },
    {
      "name": "セブンイレブン勝どき駅前店",
      "address": "勝どき1-8-1-102",
      "phoneNumber": "03-6219-7710",
      "businessCategory": "コンビニエンスストア",
      "businessCategoryCode": 1,
      "district": "勝どき",
      "isLargeRetailer": false,
      "coordinate": {
        "latitude": 35.6596126,
        "longitude": 139.7765502
      }
    },
    {
      "name": "ローソン勝どき二丁目店",
      "address": "勝どき2-15-1",
      "phoneNumber": "03-3532-3963",
      "businessCategory": "コンビニエンスストア",
      "businessCategoryCode": 1,
      "district": "勝どき",
      "isLargeRetailer": false,
      "coordinate": {
        "latitude": 35.6580977,
        "longitude": 139.7784991
      }
    },
    {
      "name": "ファミリーマート勝どき三丁目",
      "address": "勝どき3-2-3 1階",
      "phoneNumber": "03-5547-2010",
      "businessCategory": "コンビニエンスストア",
      "businessCategoryCode": 1,
      "district": "勝どき",
      "isLargeRetailer": false,
      "coordinate": {
        "latitude": 35.6599062,
        "longitude": 139.7747892
      }
    },
    {
      "name": "ローソンパークタワー勝どきミッド",
      "address": "勝どき4丁目6番2号",
      "phoneNumber": "03-3534-9220",
      "businessCategory": "コンビニエンスストア",
      "businessCategoryCode": 1,
      "district": "勝どき",
      "isLargeRetailer": false,
      "coordinate": {
        "latitude": 35.6568843,
        "longitude": 139.7773367
      }
    },
    {
      "name": "セブンイレブン勝どき５丁目店",
      "address": "勝どき5-3-2",
      "phoneNumber": "03-5548-0077",
      "businessCategory": "コンビニエンスストア",
      "businessCategoryCode": 1,
      "district": "勝どき",
      "isLargeRetailer": false,
      "coordinate": {
        "latitude": 35.6567207,
        "longitude": 139.7725562
      }
    },
    {
      "name": "ナチュラルローソン京橋一丁目",
      "address": "京橋1-10-7",
      "phoneNumber": "03-3566-8777",
      "businessCategory": "コンビニエンスストア",
      "businessCategoryCode": 1,
      "district": "京橋",
      "isLargeRetailer": false,
      "coordinate": {
        "latitude": 35.6786383,
        "longitude": 139.7726361
      }
    },
    {
      "name": "ローソンＳ清水建設新社屋店",
      "address": "京橋2-16-1",
      "phoneNumber": "03-5524-5105",
      "businessCategory": "コンビニエンスストア",
      "businessCategoryCode": 1,
      "district": "京橋",
      "isLargeRetailer": false,
      "coordinate": {
        "latitude": 35.67644870000001,
        "longitude": 139.7730313
      }
    },
    {
      "name": "ナチュラルローソン東京スクエアガーデン３階店",
      "address": "京橋3-1-1-3",
      "phoneNumber": "03-5204-2045",
      "businessCategory": "コンビニエンスストア",
      "businessCategoryCode": 1,
      "district": "京橋",
      "isLargeRetailer": false,
      "coordinate": {
        "latitude": 35.6758859,
        "longitude": 139.7686226
      }
    },
    {
      "name": "セブンイレブン銀座1丁目中央店",
      "address": "銀座1-10-6",
      "phoneNumber": "03-3562-5077",
      "businessCategory": "コンビニエンスストア",
      "businessCategoryCode": 1,
      "district": "銀座",
      "isLargeRetailer": false,
      "coordinate": {
        "latitude": 35.6735563,
        "longitude": 139.76899
      }
    },
    {
      "name": "セブンイレブン銀座１丁目店",
      "address": "銀座1-26-1",
      "phoneNumber": "03-3563-3910",
      "businessCategory": "コンビニエンスストア",
      "businessCategoryCode": 1,
      "district": "銀座",
      "isLargeRetailer": false,
      "coordinate": {
        "latitude": 35.6737093,
        "longitude": 139.7720491
      }
    },
    {
      "name": "セブンイレブン銀座２丁目店",
      "address": "銀座2-15-2",
      "phoneNumber": "03-3248-1712",
      "businessCategory": "コンビニエンスストア",
      "businessCategoryCode": 1,
      "district": "銀座",
      "isLargeRetailer": false,
      "coordinate": {
        "latitude": 35.6714618,
        "longitude": 139.7709196
      }
    },
    {
      "name": "ローソンＨ銀座三丁目店",
      "address": "銀座3-8-1",
      "phoneNumber": "03-3563-3731",
      "businessCategory": "コンビニエンスストア",
      "businessCategoryCode": 1,
      "district": "銀座",
      "isLargeRetailer": false,
      "coordinate": {
        "latitude": 35.6721033,
        "longitude": 139.7678613
      }
    },
    {
      "name": "セブンイレブン銀座３丁目店",
      "address": "銀座3-15-10",
      "phoneNumber": "03-3546-1711",
      "businessCategory": "コンビニエンスストア",
      "businessCategoryCode": 1,
      "district": "銀座",
      "isLargeRetailer": false,
      "coordinate": {
        "latitude": 35.6698185,
        "longitude": 139.769669
      }
    },
    {
      "name": "ローソン銀座四丁目昭和通店",
      "address": "銀座4-11-2",
      "phoneNumber": "03-3541-4720",
      "businessCategory": "コンビニエンスストア",
      "businessCategoryCode": 1,
      "district": "銀座",
      "isLargeRetailer": false,
      "coordinate": {
        "latitude": 35.6702213,
        "longitude": 139.7682758
      }
    },
    {
      "name": "セブンイレブン歌舞伎座店",
      "address": "銀座4-12-15",
      "phoneNumber": "03-3547-7500",
      "businessCategory": "コンビニエンスストア",
      "businessCategoryCode": 1,
      "district": "銀座",
      "isLargeRetailer": false,
      "coordinate": {
        "latitude": 35.6698629,
        "longitude": 139.7680208
      }
    },
    {
      "name": "セブンイレブン銀座地下街店",
      "address": "銀座5-4-3 対鶴館ビル地下2階",
      "phoneNumber": "03-3571-7772",
      "businessCategory": "コンビニエンスストア",
      "businessCategoryCode": 1,
      "district": "銀座",
      "isLargeRetailer": false,
      "coordinate": {
        "latitude": 35.6719859,
        "longitude": 139.7635301
      }
    },
    {
      "name": "セブンイレブン銀座6丁目中央店",
      "address": "銀座6-13-16 ヒューリック銀座ウォールビル",
      "phoneNumber": "03-3541-0711",
      "businessCategory": "コンビニエンスストア",
      "businessCategoryCode": 1,
      "district": "銀座",
      "isLargeRetailer": false,
      "coordinate": {
        "latitude": 35.6690745,
        "longitude": 139.7648907
      }
    },
    {
      "name": "セブンイレブン銀座７丁目店",
      "address": "銀座7-2-18 GRANBELL SQUERE1階",
      "phoneNumber": "03-3573-5527",
      "businessCategory": "コンビニエンスストア",
      "businessCategoryCode": 1,
      "district": "銀座",
      "isLargeRetailer": false,
      "coordinate": {
        "latitude": 35.6707854,
        "longitude": 139.7600266
      }
    },
    {
      "name": "ナチュラルローソン銀座並木通店",
      "address": "銀座7-5-10",
      "phoneNumber": "03-3572-0061",
      "businessCategory": "コンビニエンスストア",
      "businessCategoryCode": 1,
      "district": "銀座",
      "isLargeRetailer": false,
      "coordinate": {
        "latitude": 35.6695216,
        "longitude": 139.7610518
      }
    },
    {
      "name": "セブン－イレブン銀座7丁目中央店",
      "address": "銀座7丁目12-9",
      "phoneNumber": "03-5565-8686",
      "businessCategory": "コンビニエンスストア",
      "businessCategoryCode": 1,
      "district": "銀座",
      "isLargeRetailer": false,
      "coordinate": {
        "latitude": 35.6678667,
        "longitude": 139.7635754
      }
    },
    {
      "name": "セブンイレブン銀座７丁目東店",
      "address": "銀座7-15-5",
      "phoneNumber": "03-3546-1577",
      "businessCategory": "コンビニエンスストア",
      "businessCategoryCode": 1,
      "district": "銀座",
      "isLargeRetailer": false,
      "coordinate": {
        "latitude": 35.6672143,
        "longitude": 139.7653144
      }
    },
    {
      "name": "ローソン銀座八丁目店",
      "address": "銀座8-4-9",
      "phoneNumber": "03-3572-5701",
      "businessCategory": "コンビニエンスストア",
      "businessCategoryCode": 1,
      "district": "銀座",
      "isLargeRetailer": false,
      "coordinate": {
        "latitude": 35.6688505,
        "longitude": 139.7597174
      }
    },
    {
      "name": "ナチュラルローソン銀座三井ビル店",
      "address": "銀座8-13-1",
      "phoneNumber": "03-3543-8889",
      "businessCategory": "コンビニエンスストア",
      "businessCategoryCode": 1,
      "district": "銀座",
      "isLargeRetailer": false,
      "coordinate": {
        "latitude": 35.66685340000001,
        "longitude": 139.7630329
      }
    },
    {
      "name": "ファミリーマート茅場町駅東店",
      "address": "新川1-2-8 山京ビル",
      "phoneNumber": "03-3523-5384",
      "businessCategory": "コンビニエンスストア",
      "businessCategoryCode": 1,
      "district": "新川",
      "isLargeRetailer": false,
      "coordinate": {
        "latitude": 35.6788067,
        "longitude": 139.7825968
      }
    },
    {
      "name": "セブンイレブン新川１丁目中央店",
      "address": "新川1-3-10 旭ビルディング",
      "phoneNumber": "03-3552-7603",
      "businessCategory": "コンビニエンスストア",
      "businessCategoryCode": 1,
      "district": "新川",
      "isLargeRetailer": false,
      "coordinate": {
        "latitude": 35.6783037,
        "longitude": 139.781636
      }
    },
    {
      "name": "セブンイレブン中央区新川１丁目店",
      "address": "新川1-21-5 茅場町タワービル1階",
      "phoneNumber": "03-3555-5868",
      "businessCategory": "コンビニエンスストア",
      "businessCategoryCode": 1,
      "district": "新川",
      "isLargeRetailer": false,
      "coordinate": {
        "latitude": 35.6771337,
        "longitude": 139.7858012
      }
    },
    {
      "name": "ナチュラルローソン新川一丁目店",
      "address": "新川1-24-1",
      "phoneNumber": "03-3523-5430",
      "businessCategory": "コンビニエンスストア",
      "businessCategoryCode": 1,
      "district": "新川",
      "isLargeRetailer": false,
      "coordinate": {
        "latitude": 35.6767456,
        "longitude": 139.7852427
      }
    },
    {
      "name": "ファミリーマート新川２丁目店",
      "address": "新川2-6-2",
      "phoneNumber": "03-5540-7088",
      "businessCategory": "コンビニエンスストア",
      "businessCategoryCode": 1,
      "district": "新川",
      "isLargeRetailer": false,
      "coordinate": {
        "latitude": 35.6765523,
        "longitude": 139.7813656
      }
    },
    {
      "name": "セブンイレブン中央区新川２丁目店",
      "address": "新川2-12-8",
      "phoneNumber": "03-3551-1977",
      "businessCategory": "コンビニエンスストア",
      "businessCategoryCode": 1,
      "district": "新川",
      "isLargeRetailer": false,
      "coordinate": {
        "latitude": 35.6753493,
        "longitude": 139.7818427
      }
    },
    {
      "name": "ローソンＨ新川二丁目店",
      "address": "新川2-16-10",
      "phoneNumber": "03-3523-6721",
      "businessCategory": "コンビニエンスストア",
      "businessCategoryCode": 1,
      "district": "新川",
      "isLargeRetailer": false,
      "coordinate": {
        "latitude": 35.6751352,
        "longitude": 139.7825666
      }
    },
    {
      "name": "セブンイレブン東京住友ツインビル西館店",
      "address": "新川2-27-2 東京住友ツインビル西館1F",
      "phoneNumber": "03-5541-7558",
      "businessCategory": "コンビニエンスストア",
      "businessCategoryCode": 1,
      "district": "新川",
      "isLargeRetailer": false,
      "coordinate": {
        "latitude": 35.6742688,
        "longitude": 139.7838968
      }
    },
    {
      "name": "ファミリーマート新川中央大橋店",
      "address": "新川2-28-1",
      "phoneNumber": "03-3523-9019",
      "businessCategory": "コンビニエンスストア",
      "businessCategoryCode": 1,
      "district": "新川",
      "isLargeRetailer": false,
      "coordinate": {
        "latitude": 35.6734929,
        "longitude": 139.7827614
      }
    },
    {
      "name": "ローソン新富一丁目店",
      "address": "新富1-7-17",
      "phoneNumber": "03-3555-2524",
      "businessCategory": "コンビニエンスストア",
      "businessCategoryCode": 1,
      "district": "",
      "isLargeRetailer": false,
      "coordinate": {
        "latitude": 35.6729899,
        "longitude": 139.7738942
      }
    },
    {
      "name": "セブンイレブン中央区役所前店",
      "address": "新富2-2-8 松竹衣裳ビル1階",
      "phoneNumber": "03-3551-2721",
      "businessCategory": "コンビニエンスストア",
      "businessCategoryCode": 1,
      "district": "",
      "isLargeRetailer": false,
      "coordinate": {
        "latitude": 35.6714675,
        "longitude": 139.7725414
      }
    },
    {
      "name": "セブンイレブン中央区月島１丁目店",
      "address": "月島1-2-13",
      "phoneNumber": "03-3532-1332",
      "businessCategory": "コンビニエンスストア",
      "businessCategoryCode": 1,
      "district": "月島",
      "isLargeRetailer": false,
      "coordinate": {
        "latitude": 35.6655577,
        "longitude": 139.783061
      }
    },
    {
      "name": "セブンイレブン月島駅前店",
      "address": "月島1-5-2",
      "phoneNumber": "03-3533-1050",
      "businessCategory": "コンビニエンスストア",
      "businessCategoryCode": 1,
      "district": "月島",
      "isLargeRetailer": false,
      "coordinate": {
        "latitude": 35.6638639,
        "longitude": 139.7835803
      }
    },
    {
      "name": "ローソン月島駅前店",
      "address": "月島2-1-2",
      "phoneNumber": "03-3536-3157",
      "businessCategory": "コンビニエンスストア",
      "businessCategoryCode": 1,
      "district": "月島",
      "isLargeRetailer": false,
      "coordinate": {
        "latitude": 35.6640024,
        "longitude": 139.7847954
      }
    },
    {
      "name": "ファミリーマート月島３丁目店",
      "address": "月島3-31-1",
      "phoneNumber": "03-3533-8750",
      "businessCategory": "コンビニエンスストア",
      "businessCategoryCode": 1,
      "district": "月島",
      "isLargeRetailer": false,
      "coordinate": {
        "latitude": 35.6611935,
        "longitude": 139.7785377
      }
    },
    {
      "name": "ローソンＨ月島四丁目店",
      "address": "月島4-4-1",
      "phoneNumber": "03-3534-1739",
      "businessCategory": "コンビニエンスストア",
      "businessCategoryCode": 1,
      "district": "月島",
      "isLargeRetailer": false,
      "coordinate": {
        "latitude": 35.6611178,
        "longitude": 139.7837142
      }
    },
    {
      "name": "ローソンＨ月島勝どき店",
      "address": "月島4-16-1",
      "phoneNumber": "03-3533-7203",
      "businessCategory": "コンビニエンスストア",
      "businessCategoryCode": 1,
      "district": "月島",
      "isLargeRetailer": false,
      "coordinate": {
        "latitude": 35.660619,
        "longitude": 139.780961
      }
    },
    {
      "name": "ローソン新富町メトロピア店",
      "address": "築地1-1-1",
      "phoneNumber": "03-3524-3855",
      "businessCategory": "コンビニエンスストア",
      "businessCategoryCode": 1,
      "district": "築地",
      "isLargeRetailer": false,
      "coordinate": {
        "latitude": 35.6706351,
        "longitude": 139.7719965
      }
    },
    {
      "name": "セブンイレブン中央区築地２丁目店",
      "address": "築地2-7-12 山京ビル1F",
      "phoneNumber": "03-5565-8717",
      "businessCategory": "コンビニエンスストア",
      "businessCategoryCode": 1,
      "district": "築地",
      "isLargeRetailer": false,
      "coordinate": {
        "latitude": 35.6698382,
        "longitude": 139.7726944
      }
    },
    {
      "name": "ローソン築地二丁目店",
      "address": "築地2-15-13",
      "phoneNumber": "03-5565-0828",
      "businessCategory": "コンビニエンスストア",
      "businessCategoryCode": 1,
      "district": "築地",
      "isLargeRetailer": false,
      "coordinate": {
        "latitude": 35.6671177,
        "longitude": 139.7705282
      }
    },
    {
      "name": "ローソンＨ築地三丁目店",
      "address": "築地3-1-10",
      "phoneNumber": "03-3248-6866",
      "businessCategory": "コンビニエンスストア",
      "businessCategoryCode": 1,
      "district": "築地",
      "isLargeRetailer": false,
      "coordinate": {
        "latitude": 35.6693441,
        "longitude": 139.7744931
      }
    },
    {
      "name": "セブンイレブン築地日刊スポーツ本社店",
      "address": "築地3-5-10",
      "phoneNumber": "03-3547-7517",
      "businessCategory": "コンビニエンスストア",
      "businessCategoryCode": 1,
      "district": "築地",
      "isLargeRetailer": false,
      "coordinate": {
        "latitude": 35.6679708,
        "longitude": 139.7742568
      }
    },
    {
      "name": "ファミリーマート築地本願寺前店",
      "address": "築地3-11-8",
      "phoneNumber": "03-3541-0070",
      "businessCategory": "コンビニエンスストア",
      "businessCategoryCode": 1,
      "district": "築地",
      "isLargeRetailer": false,
      "coordinate": {
        "latitude": 35.66759020000001,
        "longitude": 139.7724164
      }
    },
    {
      "name": "ローソン築地四丁目店",
      "address": "築地4-8-1",
      "phoneNumber": "03-3546-3963",
      "businessCategory": "コンビニエンスストア",
      "businessCategoryCode": 1,
      "district": "築地",
      "isLargeRetailer": false,
      "coordinate": {
        "latitude": 35.6661823,
        "longitude": 139.7705593
      }
    },
    {
      "name": "セブンイレブン築地７丁目店",
      "address": "築地7-8-10",
      "phoneNumber": "03-3546-7177",
      "businessCategory": "コンビニエンスストア",
      "businessCategoryCode": 1,
      "district": "築地",
      "isLargeRetailer": false,
      "coordinate": {
        "latitude": 35.6662257,
        "longitude": 139.7745985
      }
    },
    {
      "name": "セブンイレブン中央区佃２丁目店",
      "address": "佃2-10-9",
      "phoneNumber": "03-3533-0921",
      "businessCategory": "コンビニエンスストア",
      "businessCategoryCode": 1,
      "district": "佃",
      "isLargeRetailer": false,
      "coordinate": {
        "latitude": 35.6663187,
        "longitude": 139.784665
      }
    },
    {
      "name": "ファミリーマート佃二丁目店",
      "address": "佃2-12-12 ハーモニーコート1階",
      "phoneNumber": "03-3533-3892",
      "businessCategory": "コンビニエンスストア",
      "businessCategoryCode": 1,
      "district": "佃",
      "isLargeRetailer": false,
      "coordinate": {
        "latitude": 35.6667625,
        "longitude": 139.7859101
      }
    },
    {
      "name": "ファミリーマート豊海町店",
      "address": "豊海町5-1 豊海センタービル1階",
      "phoneNumber": "03-5547-5235",
      "businessCategory": "コンビニエンスストア",
      "businessCategoryCode": 1,
      "district": "豊海町",
      "isLargeRetailer": false,
      "coordinate": {
        "latitude": 35.6534719,
        "longitude": 139.7697984
      }
    },
    {
      "name": "ナチュラルローソン日本橋二丁目店",
      "address": "日本橋2-1-21",
      "phoneNumber": "03-5201-5515",
      "businessCategory": "コンビニエンスストア",
      "businessCategoryCode": 1,
      "district": "日本橋",
      "isLargeRetailer": false,
      "coordinate": {
        "latitude": 35.6827475,
        "longitude": 139.7723777
      }
    },
    {
      "name": "ローソン日本橋二丁目中央通り",
      "address": "日本橋2-1-14",
      "phoneNumber": "03-6262-2013",
      "businessCategory": "コンビニエンスストア",
      "businessCategoryCode": 1,
      "district": "日本橋",
      "isLargeRetailer": false,
      "coordinate": {
        "latitude": 35.6821444,
        "longitude": 139.7730155
      }
    },
    {
      "name": "ファミリーマート八重洲さくら通り店",
      "address": "日本橋2-3-18",
      "phoneNumber": "03-3548-8300",
      "businessCategory": "コンビニエンスストア",
      "businessCategoryCode": 1,
      "district": "日本橋",
      "isLargeRetailer": false,
      "coordinate": {
        "latitude": 35.6813517,
        "longitude": 139.7716558
      }
    },
    {
      "name": "セブンイレブン日本橋２丁目店",
      "address": "日本橋2-3-21",
      "phoneNumber": "03-5201-5518",
      "businessCategory": "コンビニエンスストア",
      "businessCategoryCode": 1,
      "district": "日本橋",
      "isLargeRetailer": false,
      "coordinate": {
        "latitude": 35.6816953,
        "longitude": 139.7718206
      }
    },
    {
      "name": "ローソン日本橋三丁目店",
      "address": "日本橋3-5-11",
      "phoneNumber": "03-3275-2250",
      "businessCategory": "コンビニエンスストア",
      "businessCategoryCode": 1,
      "district": "日本橋",
      "isLargeRetailer": false,
      "coordinate": {
        "latitude": 35.6789987,
        "longitude": 139.7730196
      }
    },
    {
      "name": "ローソン日本橋蛎殻町一丁目店",
      "address": "日本橋蛎殻町1-11-5",
      "phoneNumber": "03-5695-5665",
      "businessCategory": "コンビニエンスストア",
      "businessCategoryCode": 1,
      "district": "日本橋",
      "isLargeRetailer": false,
      "coordinate": {
        "latitude": 35.6837576,
        "longitude": 139.7813833
      }
    },
    {
      "name": "セブンイレブン日本橋蛎殻町店",
      "address": "日本橋蛎殻町1-16-8 水天宮平和ビル1F",
      "phoneNumber": "03-3639-0432",
      "businessCategory": "コンビニエンスストア",
      "businessCategoryCode": 1,
      "district": "日本橋",
      "isLargeRetailer": false,
      "coordinate": {
        "latitude": 35.6833127,
        "longitude": 139.7828924
      }
    },
    {
      "name": "ファミリーマート日本橋かきがら町店",
      "address": "日本橋蛎殻町1-36-9 ブロードシティ東京１Ｆ",
      "phoneNumber": "03-5645-1990",
      "businessCategory": "コンビニエンスストア",
      "businessCategoryCode": 1,
      "district": "日本橋",
      "isLargeRetailer": false,
      "coordinate": {
        "latitude": 35.6818785,
        "longitude": 139.7857374
      }
    },
    {
      "name": "セブンイレブン水天宮前店",
      "address": "日本橋蛎殻町1-38-11",
      "phoneNumber": "03-3249-1369",
      "businessCategory": "コンビニエンスストア",
      "businessCategoryCode": 1,
      "district": "日本橋",
      "isLargeRetailer": false,
      "coordinate": {
        "latitude": 35.682983,
        "longitude": 139.7848805
      }
    },
    {
      "name": "セブンイレブン日本橋浜町店",
      "address": "日本橋蛎殻町2-14-4",
      "phoneNumber": "03-3666-5980",
      "businessCategory": "コンビニエンスストア",
      "businessCategoryCode": 1,
      "district": "日本橋",
      "isLargeRetailer": false,
      "coordinate": {
        "latitude": 35.684639,
        "longitude": 139.7866899
      }
    },
    {
      "name": "ローソン日本橋かぶと町",
      "address": "日本橋兜町1-13先",
      "phoneNumber": "03-6231-0504",
      "businessCategory": "コンビニエンスストア",
      "businessCategoryCode": 1,
      "district": "日本橋",
      "isLargeRetailer": false,
      "coordinate": {
        "latitude": 35.6835822,
        "longitude": 139.7782836
      }
    },
    {
      "name": "セブンイレブン日本橋兜町店",
      "address": "日本橋兜町15-13",
      "phoneNumber": "03-5695-5677",
      "businessCategory": "コンビニエンスストア",
      "businessCategoryCode": 1,
      "district": "日本橋",
      "isLargeRetailer": false,
      "coordinate": {
        "latitude": 35.6793571,
        "longitude": 139.7763127
      }
    },
    {
      "name": "セブンイレブン茅場町駅前店",
      "address": "日本橋茅場町1-9-2",
      "phoneNumber": "03-3669-0717",
      "businessCategory": "コンビニエンスストア",
      "businessCategoryCode": 1,
      "district": "日本橋",
      "isLargeRetailer": false,
      "coordinate": {
        "latitude": 35.680725,
        "longitude": 139.778619
      }
    },
    {
      "name": "セブンイレブン日本橋茅場町２丁目店",
      "address": "日本橋茅場町2-9-5",
      "phoneNumber": "03-3663-1003",
      "businessCategory": "コンビニエンスストア",
      "businessCategoryCode": 1,
      "district": "日本橋",
      "isLargeRetailer": false,
      "coordinate": {
        "latitude": 35.6786679,
        "longitude": 139.7790666
      }
    },
    {
      "name": "ローソン日本橋茅場町店",
      "address": "日本橋茅場町2-13-11",
      "phoneNumber": "03-3669-8163",
      "businessCategory": "コンビニエンスストア",
      "businessCategoryCode": 1,
      "district": "日本橋",
      "isLargeRetailer": false,
      "coordinate": {
        "latitude": 35.6788865,
        "longitude": 139.7798007
      }
    },
    {
      "name": "セブンイレブン日本橋小網町店",
      "address": "日本橋小網町1-3 大島ビル1F",
      "phoneNumber": "03-5695-3990",
      "businessCategory": "コンビニエンスストア",
      "businessCategoryCode": 1,
      "district": "日本橋",
      "isLargeRetailer": false,
      "coordinate": {
        "latitude": 35.6812331,
        "longitude": 139.7814019
      }
    },
    {
      "name": "セブンイレブン小伝馬町駅前店",
      "address": "日本橋小伝馬町2-4",
      "phoneNumber": "03-3662-1755",
      "businessCategory": "コンビニエンスストア",
      "businessCategoryCode": 1,
      "district": "日本橋",
      "isLargeRetailer": false,
      "coordinate": {
        "latitude": 35.6904133,
        "longitude": 139.7783875
      }
    },
    {
      "name": "セブンイレブン日本橋小伝馬町店",
      "address": "日本橋小伝馬町10-11 日本橋府川ビル1F",
      "phoneNumber": "03-3664-7099",
      "businessCategory": "コンビニエンスストア",
      "businessCategoryCode": 1,
      "district": "日本橋",
      "isLargeRetailer": false,
      "coordinate": {
        "latitude": 35.6913458,
        "longitude": 139.7790356
      }
    },
    {
      "name": "セブンイレブン人形町駅西",
      "address": "日本橋人形町1-3-6",
      "phoneNumber": "03-3639-5610",
      "businessCategory": "コンビニエンスストア",
      "businessCategoryCode": 1,
      "district": "日本橋",
      "isLargeRetailer": false,
      "coordinate": {
        "latitude": 35.6855424,
        "longitude": 139.7811093
      }
    },
    {
      "name": "セブンイレブン人形町２丁目店",
      "address": "日本橋人形町2-26-5",
      "phoneNumber": "03-5695-0107",
      "businessCategory": "コンビニエンスストア",
      "businessCategoryCode": 1,
      "district": "日本橋",
      "isLargeRetailer": false,
      "coordinate": {
        "latitude": 35.6871259,
        "longitude": 139.7839305
      }
    },
    {
      "name": "セブンイレブン人形町甘酒横丁店",
      "address": "日本橋人形町2-31-13",
      "phoneNumber": "03-3639-7702",
      "businessCategory": "コンビニエンスストア",
      "businessCategoryCode": 1,
      "district": "日本橋",
      "isLargeRetailer": false,
      "coordinate": {
        "latitude": 35.6863246,
        "longitude": 139.7852239
      }
    },
    {
      "name": "セブンイレブン日本橋人形町３丁目店",
      "address": "日本橋人形町3-1-2",
      "phoneNumber": "03-3664-0576",
      "businessCategory": "コンビニエンスストア",
      "businessCategoryCode": 1,
      "district": "日本橋",
      "isLargeRetailer": false,
      "coordinate": {
        "latitude": 35.6854911,
        "longitude": 139.7799222
      }
    },
    {
      "name": "セブンイレブン日本橋Ｔ－ＣＡＴ店",
      "address": "日本橋箱崎町22-1",
      "phoneNumber": "03-3665-7211",
      "businessCategory": "コンビニエンスストア",
      "businessCategoryCode": 1,
      "district": "日本橋",
      "isLargeRetailer": false,
      "coordinate": {
        "latitude": 35.6815387,
        "longitude": 139.7864911
      }
    },
    {
      "name": "ローソン日本橋箱崎店",
      "address": "日本橋箱崎町27-2",
      "phoneNumber": "03-6231-1977",
      "businessCategory": "コンビニエンスストア",
      "businessCategoryCode": 1,
      "district": "日本橋",
      "isLargeRetailer": false,
      "coordinate": {
        "latitude": 35.6799556,
        "longitude": 139.7869602
      }
    },
    {
      "name": "セブンイレブンＴ－ＣＡＴ２階店",
      "address": "日本橋箱崎町42-1",
      "phoneNumber": "03-3665-7155",
      "businessCategory": "コンビニエンスストア",
      "businessCategoryCode": 1,
      "district": "日本橋",
      "isLargeRetailer": false,
      "coordinate": {
        "latitude": 35.6820276,
        "longitude": 139.7877568
      }
    },
    {
      "name": "ローソン日本橋浜町二丁目店",
      "address": "日本橋浜町2-15-5",
      "phoneNumber": "03-3669-9701",
      "businessCategory": "コンビニエンスストア",
      "businessCategoryCode": 1,
      "district": "日本橋",
      "isLargeRetailer": false,
      "coordinate": {
        "latitude": 35.6876083,
        "longitude": 139.7863049
      }
    },
    {
      "name": "Ｙショップ上総屋",
      "address": "日本橋浜町2-55-5-104",
      "phoneNumber": "03-3666-6044",
      "businessCategory": "コンビニエンスストア",
      "businessCategoryCode": 1,
      "district": "日本橋",
      "isLargeRetailer": false,
      "coordinate": {
        "latitude": 35.68692619999999,
        "longitude": 139.7904326
      }
    },
    {
      "name": "セブンイレブン日本橋久松町店",
      "address": "日本橋久松町10-6",
      "phoneNumber": "03-3668-3711",
      "businessCategory": "コンビニエンスストア",
      "businessCategoryCode": 1,
      "district": "日本橋",
      "isLargeRetailer": false,
      "coordinate": {
        "latitude": 35.6894671,
        "longitude": 139.7849805
      }
    },
    {
      "name": "デイリーヤマザキ日本橋堀留町店",
      "address": "日本橋堀留町1-2-16",
      "phoneNumber": "03-3249-1060",
      "businessCategory": "コンビニエンスストア",
      "businessCategoryCode": 1,
      "district": "日本橋",
      "isLargeRetailer": false,
      "coordinate": {
        "latitude": 35.6878771,
        "longitude": 139.7788736
      }
    },
    {
      "name": "セブンイレブン日本橋堀留町２丁目店",
      "address": "日本橋堀留町2-3-3",
      "phoneNumber": "03-5641-6115",
      "businessCategory": "コンビニエンスストア",
      "businessCategoryCode": 1,
      "district": "日本橋",
      "isLargeRetailer": false,
      "coordinate": {
        "latitude": 35.6886051,
        "longitude": 139.7805857
      }
    },
    {
      "name": "セブンイレブン日本橋本石町３丁目店",
      "address": "日本橋本石町3丁目3-10",
      "phoneNumber": "03-3273-0390",
      "businessCategory": "コンビニエンスストア",
      "businessCategoryCode": 1,
      "district": "日本橋",
      "isLargeRetailer": false,
      "coordinate": {
        "latitude": 35.6878755,
        "longitude": 139.7716649
      }
    },
    {
      "name": "セブンイレブン日本橋本町３丁目店",
      "address": "日本橋本町3-7-2",
      "phoneNumber": "03-3662-6130",
      "businessCategory": "コンビニエンスストア",
      "businessCategoryCode": 1,
      "district": "日本橋",
      "isLargeRetailer": false,
      "coordinate": {
        "latitude": 35.6891098,
        "longitude": 139.7763117
      }
    },
    {
      "name": "デイリーヤマザキ日本橋室町１丁目店",
      "address": "日本橋室町1-10-8",
      "phoneNumber": "03-3272-6488",
      "businessCategory": "コンビニエンスストア",
      "businessCategoryCode": 1,
      "district": "日本橋",
      "isLargeRetailer": false,
      "coordinate": {
        "latitude": 35.6853381,
        "longitude": 139.7757514
      }
    },
    {
      "name": "セブンイレブン日本橋室町３丁目",
      "address": "日本橋室町3-4-4 OVOL日本橋ビル1階",
      "phoneNumber": "03-5202-2021",
      "businessCategory": "コンビニエンスストア",
      "businessCategoryCode": 1,
      "district": "日本橋",
      "isLargeRetailer": false,
      "coordinate": {
        "latitude": 35.6884087,
        "longitude": 139.7734457
      }
    },
    {
      "name": "ＪＲ新日本橋駅構内ニューデイズ売店",
      "address": "日本橋室町4-4-10",
      "phoneNumber": "03-3517-5487",
      "businessCategory": "コンビニエンスストア",
      "businessCategoryCode": 1,
      "district": "日本橋",
      "isLargeRetailer": false,
      "coordinate": {
        "latitude": 35.68903420000001,
        "longitude": 139.773303
      }
    },
    {
      "name": "ローソンＨ八丁堀一丁目",
      "address": "八丁堀1-5-1",
      "phoneNumber": "03-6262-8820",
      "businessCategory": "コンビニエンスストア",
      "businessCategoryCode": 1,
      "district": "",
      "isLargeRetailer": false,
      "coordinate": {
        "latitude": 35.6777549,
        "longitude": 139.7759366
      }
    },
    {
      "name": "セブンイレブン八丁堀１丁目店",
      "address": "八丁堀1-12-8",
      "phoneNumber": "03-5541-0477",
      "businessCategory": "コンビニエンスストア",
      "businessCategoryCode": 1,
      "district": "",
      "isLargeRetailer": false,
      "coordinate": {
        "latitude": 35.67703520000001,
        "longitude": 139.7786641
      }
    },
    {
      "name": "セブンイレブン八丁堀二丁目店",
      "address": "八丁堀2-10-9",
      "phoneNumber": "03-3297-3050",
      "businessCategory": "コンビニエンスストア",
      "businessCategoryCode": 1,
      "district": "",
      "isLargeRetailer": false,
      "coordinate": {
        "latitude": 35.6761574,
        "longitude": 139.7755317
      }
    },
    {
      "name": "ファミリーマート八丁堀二丁目店",
      "address": "八丁堀2-20-1 藤和ビル1F",
      "phoneNumber": "03-5566-8095",
      "businessCategory": "コンビニエンスストア",
      "businessCategoryCode": 1,
      "district": "",
      "isLargeRetailer": false,
      "coordinate": {
        "latitude": 35.6758964,
        "longitude": 139.7768926
      }
    },
    {
      "name": "ローソン八丁堀二丁目店",
      "address": "八丁堀2-24-2",
      "phoneNumber": "03-3551-3880",
      "businessCategory": "コンビニエンスストア",
      "businessCategoryCode": 1,
      "district": "",
      "isLargeRetailer": false,
      "coordinate": {
        "latitude": 35.6764105,
        "longitude": 139.7782677
      }
    },
    {
      "name": "ローソンＨ八丁堀四丁目店",
      "address": "八丁堀4-13-1",
      "phoneNumber": "03-3206-3120",
      "businessCategory": "コンビニエンスストア",
      "businessCategoryCode": 1,
      "district": "",
      "isLargeRetailer": false,
      "coordinate": {
        "latitude": 35.6743991,
        "longitude": 139.7787716
      }
    },
    {
      "name": "ローソン東日本橋二丁目店",
      "address": "東日本橋2-4-3",
      "phoneNumber": "03-5833-3608",
      "businessCategory": "コンビニエンスストア",
      "businessCategoryCode": 1,
      "district": "日本橋",
      "isLargeRetailer": false,
      "coordinate": {
        "latitude": 35.6918784,
        "longitude": 139.7856953
      }
    },
    {
      "name": "ローソン東日本橋京葉道路店",
      "address": "東日本橋2-24-14",
      "phoneNumber": "03-5829-6738",
      "businessCategory": "コンビニエンスストア",
      "businessCategoryCode": 1,
      "district": "日本橋",
      "isLargeRetailer": false,
      "coordinate": {
        "latitude": 35.6943673,
        "longitude": 139.7868033
      }
    },
    {
      "name": "ローソン晴海トリトンスクエア店",
      "address": "晴海1-8-16 晴海トリトンスクエア2F",
      "phoneNumber": "03-5144-8231",
      "businessCategory": "コンビニエンスストア",
      "businessCategoryCode": 1,
      "district": "晴海",
      "isLargeRetailer": false,
      "coordinate": {
        "latitude": 35.6573718,
        "longitude": 139.7827814
      }
    },
    {
      "name": "セブンイレブン晴海ウェーブガーデン",
      "address": "晴海3-2-4",
      "phoneNumber": "03-3532-3177",
      "businessCategory": "コンビニエンスストア",
      "businessCategoryCode": 1,
      "district": "晴海",
      "isLargeRetailer": false,
      "coordinate": {
        "latitude": 35.6556628,
        "longitude": 139.78064
      }
    },
    {
      "name": "ローソン中央晴海三丁目店",
      "address": "晴海3-3-3",
      "phoneNumber": "03-3532-2212",
      "businessCategory": "コンビニエンスストア",
      "businessCategoryCode": 1,
      "district": "晴海",
      "isLargeRetailer": false,
      "coordinate": {
        "latitude": 35.6549938,
        "longitude": 139.780612
      }
    },
    {
      "name": "セブンイレブンベイシティ晴海店",
      "address": "晴海3-6-8",
      "phoneNumber": "03-5546-3971",
      "businessCategory": "コンビニエンスストア",
      "businessCategoryCode": 1,
      "district": "晴海",
      "isLargeRetailer": false,
      "coordinate": {
        "latitude": 35.6557508,
        "longitude": 139.7791851
      }
    },
    {
      "name": "セブンイレブン晴海３丁目店",
      "address": "晴海3-12-1 KDX晴海ビル1F",
      "phoneNumber": "03-5546-0560",
      "businessCategory": "コンビニエンスストア",
      "businessCategoryCode": 1,
      "district": "晴海",
      "isLargeRetailer": false,
      "coordinate": {
        "latitude": 35.6545919,
        "longitude": 139.7785548
      }
    },
    {
      "name": "ローソン八重洲一丁目店",
      "address": "八重洲1-3-7",
      "phoneNumber": "03-3243-3963",
      "businessCategory": "コンビニエンスストア",
      "businessCategoryCode": 1,
      "district": "八重洲",
      "isLargeRetailer": false,
      "coordinate": {
        "latitude": 35.6829748,
        "longitude": 139.7718298
      }
    },
    {
      "name": "セブンイレブン八重洲１丁目店",
      "address": "八重洲1-3-18 ＶＯＲＴ東京八重洲１Ｆ",
      "phoneNumber": "03-5201-2585",
      "businessCategory": "コンビニエンスストア",
      "businessCategoryCode": 1,
      "district": "八重洲",
      "isLargeRetailer": false,
      "coordinate": {
        "latitude": 35.6829958,
        "longitude": 139.7709516
      }
    },
    {
      "name": "ローソンヤエチカ店",
      "address": "八重洲2-1 八重洲地下街中3号",
      "phoneNumber": "03-3231-6300",
      "businessCategory": "コンビニエンスストア",
      "businessCategoryCode": 1,
      "district": "八重洲",
      "isLargeRetailer": false,
      "coordinate": {
        "latitude": 35.6802223,
        "longitude": 139.7692184
      }
    },
    {
      "name": "Sato tailor銀座店",
      "address": "入船2-3-6 細矢ビル1F",
      "phoneNumber": "03-3552-7353",
      "businessCategory": "テーラー",
      "businessCategoryCode": 2,
      "district": "入船",
      "isLargeRetailer": false,
      "coordinate": {
        "latitude": 35.6713708,
        "longitude": 139.7771158
      }
    },
    {
      "name": "ナノビジョン",
      "address": "勝どき1-8-1 勝どきビュータワー2階",
      "phoneNumber": "03-5547-8010",
      "businessCategory": "コンタクトレンズ販売",
      "businessCategoryCode": 6,
      "district": "勝どき",
      "isLargeRetailer": false,
      "coordinate": {
        "latitude": 35.6596006,
        "longitude": 139.776626
      }
    },
    {
      "name": "ダンカン八重洲店",
      "address": "京橋1-4-13 セントラル京橋ビル1F",
      "phoneNumber": "03-6225-2786",
      "businessCategory": "オーダースーツ・シャツの小売り",
      "businessCategoryCode": 2,
      "district": "京橋",
      "isLargeRetailer": false,
      "coordinate": {
        "latitude": 35.6786904,
        "longitude": 139.7699516
      }
    },
    {
      "name": "グリマロンドン銀座店",
      "address": "銀座1-6-11",
      "phoneNumber": "03-3562-8880",
      "businessCategory": "衣類・その他洋品",
      "businessCategoryCode": 2,
      "district": "銀座",
      "isLargeRetailer": false,
      "coordinate": {
        "latitude": 35.6744188,
        "longitude": 139.7672382
      }
    },
    {
      "name": "銀座タニザワ",
      "address": "銀座1-7-6 タニザワビル1階",
      "phoneNumber": "03-3567-7553",
      "businessCategory": "鞄",
      "businessCategoryCode": 2,
      "district": "銀座",
      "isLargeRetailer": false,
      "coordinate": {
        "latitude": 35.674416,
        "longitude": 139.7681017
      }
    },
    {
      "name": "銀座タカゲン",
      "address": "銀座1-9-18",
      "phoneNumber": "03-6263-9515",
      "businessCategory": "杖・ステッキ専門店",
      "businessCategoryCode": 7,
      "district": "銀座",
      "isLargeRetailer": false,
      "coordinate": {
        "latitude": 35.6739437,
        "longitude": 139.7687322
      }
    },
    {
      "name": "ＪＵＮ ＧＩＮＺＡ",
      "address": "銀座1-21-13 GINZA HOUSE 1F・2F",
      "phoneNumber": "03-6263-0897",
      "businessCategory": "メガネ販売",
      "businessCategoryCode": 6,
      "district": "銀座",
      "isLargeRetailer": false,
      "coordinate": {
        "latitude": 35.6724038,
        "longitude": 139.770639
      }
    },
    {
      "name": "ギンザメガネセンター銀座本店",
      "address": "銀座2-11-10 第2銀座ヤマトビル",
      "phoneNumber": "03-3546-1526",
      "businessCategory": "メガネ販売",
      "businessCategoryCode": 6,
      "district": "銀座",
      "isLargeRetailer": false,
      "coordinate": {
        "latitude": 35.6718204,
        "longitude": 139.7687012
      }
    },
    {
      "name": "アレグレット銀座本店",
      "address": "銀座2-11-11",
      "phoneNumber": "03-6264-2283",
      "businessCategory": "セレクトショップ",
      "businessCategoryCode": 2,
      "district": "銀座",
      "isLargeRetailer": false,
      "coordinate": {
        "latitude": 35.6718204,
        "longitude": 139.7687012
      }
    },
    {
      "name": "i-deux",
      "address": "銀座2-13-20 東武ハイライン101",
      "phoneNumber": "03-6281-5702",
      "businessCategory": "ヨーロッパ雑貨店",
      "businessCategoryCode": 1,
      "district": "銀座",
      "isLargeRetailer": false,
      "coordinate": {
        "latitude": 35.6719998,
        "longitude": 139.7702598
      }
    },
    {
      "name": "銀座橘苑",
      "address": "銀座3-9-4 第一文成ビル3F",
      "phoneNumber": "03-3543-5298",
      "businessCategory": "呉服",
      "businessCategoryCode": 2,
      "district": "銀座",
      "isLargeRetailer": false,
      "coordinate": {
        "latitude": 35.6717135,
        "longitude": 139.7680234
      }
    },
    {
      "name": "紺屋廣瀬",
      "address": "銀座3-13-2 登栄東銀座ビル1F",
      "phoneNumber": "03-3541-7879",
      "businessCategory": "藍染、草木染製品小売業",
      "businessCategoryCode": 2,
      "district": "銀座",
      "isLargeRetailer": false,
      "coordinate": {
        "latitude": 35.6707724,
        "longitude": 139.7697584
      }
    },
    {
      "name": "ＷＡＳＨ 西銀座デパート１Ｆ店",
      "address": "銀座4-1先 西銀座デパート1F",
      "phoneNumber": "03-3566-4707",
      "businessCategory": "婦人靴・バッグ",
      "businessCategoryCode": 2,
      "district": "銀座",
      "isLargeRetailer": false,
      "coordinate": {
        "latitude": 35.672971,
        "longitude": 139.7633189
      }
    },
    {
      "name": "銀座ワシントン 西銀座デパート１Ｆ店",
      "address": "銀座4-1先 西銀座デパート1F",
      "phoneNumber": "03-3566-4056",
      "businessCategory": "婦人靴・バッグ",
      "businessCategoryCode": 2,
      "district": "銀座",
      "isLargeRetailer": false,
      "coordinate": {
        "latitude": 35.672971,
        "longitude": 139.7633189
      }
    },
    {
      "name": "リーガルシューズ銀座数寄屋橋店",
      "address": "銀座4-2-12 銀座クリスタルビル1F",
      "phoneNumber": "03-5250-7426",
      "businessCategory": "靴",
      "businessCategoryCode": 2,
      "district": "銀座",
      "isLargeRetailer": false,
      "coordinate": {
        "latitude": 35.6725255,
        "longitude": 139.7636965
      }
    },
    {
      "name": "銀座かねまつ４丁目店",
      "address": "銀座4-6-10",
      "phoneNumber": "03-3563-0077",
      "businessCategory": "婦人靴・ハンドバッグ",
      "businessCategoryCode": 2,
      "district": "銀座",
      "isLargeRetailer": false,
      "coordinate": {
        "latitude": 35.6710243,
        "longitude": 139.7657197
      }
    },
    {
      "name": "やまと屋",
      "address": "銀座4-6-11 銀座センタービル1階",
      "phoneNumber": "03-3561-0795",
      "businessCategory": "靴・サンダル・傘",
      "businessCategoryCode": 2,
      "district": "銀座",
      "isLargeRetailer": false,
      "coordinate": {
        "latitude": 35.6711676,
        "longitude": 139.7654885
      }
    },
    {
      "name": "銀座いさみや",
      "address": "銀座4-6-16",
      "phoneNumber": "03-3563-1338",
      "businessCategory": "子供服",
      "businessCategoryCode": 2,
      "district": "銀座",
      "isLargeRetailer": false,
      "coordinate": {
        "latitude": 35.671214,
        "longitude": 139.7659268
      }
    },
    {
      "name": "銀座モトキ四丁目店",
      "address": "銀座4-6-17",
      "phoneNumber": "03-3535-3307",
      "businessCategory": "紳士洋品",
      "businessCategoryCode": 2,
      "district": "銀座",
      "isLargeRetailer": false,
      "coordinate": {
        "latitude": 35.6716867,
        "longitude": 139.7658677
      }
    },
    {
      "name": "MANDARIN MTM CLOTHING",
      "address": "銀座4丁目13-1 松戸ビル1階",
      "phoneNumber": "03-6281-5135",
      "businessCategory": "紳士服店",
      "businessCategoryCode": 2,
      "district": "銀座",
      "isLargeRetailer": false,
      "coordinate": {
        "latitude": 35.6697069,
        "longitude": 139.7689918
      }
    },
    {
      "name": "コーディネイトショップチップス",
      "address": "銀座5-1 銀座ファイブ",
      "phoneNumber": "03-3571-5047",
      "businessCategory": "婦人服",
      "businessCategoryCode": 2,
      "district": "銀座",
      "isLargeRetailer": false,
      "coordinate": {
        "latitude": 35.6726299,
        "longitude": 139.7614943
      }
    },
    {
      "name": "メガネスーパーＧＩＮＺＡ５店",
      "address": "銀座5-1 GINZA5-1階",
      "phoneNumber": "03-6263-8756",
      "businessCategory": "眼鏡・コンタクトレンズ",
      "businessCategoryCode": 6,
      "district": "銀座",
      "isLargeRetailer": false,
      "coordinate": {
        "latitude": 35.6726299,
        "longitude": 139.7614943
      }
    },
    {
      "name": "銀座ペピアン",
      "address": "銀座5-1先 銀座ファイブ1F",
      "phoneNumber": "03-6263-0508",
      "businessCategory": "婦人服",
      "businessCategoryCode": 2,
      "district": "銀座",
      "isLargeRetailer": false,
      "coordinate": {
        "latitude": 35.6726299,
        "longitude": 139.7614943
      }
    },
    {
      "name": "株式会社ぎおん石",
      "address": "銀座5-6-5すずらん通り",
      "phoneNumber": "03-3569-7775",
      "businessCategory": "ぎおん石 銀座店",
      "businessCategoryCode": 7,
      "district": "銀座",
      "isLargeRetailer": false,
      "coordinate": {
        "latitude": 35.6712162,
        "longitude": 139.7640801
      }
    },
    {
      "name": "銀座大黒屋",
      "address": "銀座5-7-6",
      "phoneNumber": "03-3571-0008",
      "businessCategory": "ハンドバッグと婦人服",
      "businessCategoryCode": 2,
      "district": "銀座",
      "isLargeRetailer": false,
      "coordinate": {
        "latitude": 35.6709799,
        "longitude": 139.7644241
      }
    },
    {
      "name": "銀座ワシントン 銀座本店",
      "address": "銀座5-7-7",
      "phoneNumber": "03-3572-5911",
      "businessCategory": "紳士靴・婦人靴・バッグ",
      "businessCategoryCode": 2,
      "district": "銀座",
      "isLargeRetailer": false,
      "coordinate": {
        "latitude": 35.6709,
        "longitude": 139.7642464
      }
    },
    {
      "name": "ジーユー銀座店",
      "address": "銀座5-7-7",
      "phoneNumber": "03-6255-6141",
      "businessCategory": "アパレル",
      "businessCategoryCode": 2,
      "district": "銀座",
      "isLargeRetailer": false,
      "coordinate": {
        "latitude": 35.6709,
        "longitude": 139.7642464
      }
    },
    {
      "name": "銀座トリヰ",
      "address": "銀座5-7-16",
      "phoneNumber": "03-3574-8701",
      "businessCategory": "婦人服･服飾小物",
      "businessCategoryCode": 2,
      "district": "銀座",
      "isLargeRetailer": false,
      "coordinate": {
        "latitude": 35.6709185,
        "longitude": 139.7640732
      }
    },
    {
      "name": "マドラス銀座店",
      "address": "銀座5-8-5",
      "phoneNumber": "03-3571-1200",
      "businessCategory": "紳士靴・婦人靴",
      "businessCategoryCode": 2,
      "district": "銀座",
      "isLargeRetailer": false,
      "coordinate": {
        "latitude": 35.6726299,
        "longitude": 139.7614943
      }
    },
    {
      "name": "銀座山形屋 銀座店",
      "address": "銀座5-9-1",
      "phoneNumber": "03-3571-2986",
      "businessCategory": "紳士服・婦人服オーダー",
      "businessCategoryCode": 2,
      "district": "銀座",
      "isLargeRetailer": false,
      "coordinate": {
        "latitude": 35.6705617,
        "longitude": 139.7654683
      }
    },
    {
      "name": "ゑり菊",
      "address": "銀座5-9-16",
      "phoneNumber": "03-3571-0341",
      "businessCategory": "呉服 和装小物",
      "businessCategoryCode": 2,
      "district": "銀座",
      "isLargeRetailer": false,
      "coordinate": {
        "latitude": 35.6701935,
        "longitude": 139.7650003
      }
    },
    {
      "name": "銀座藤屋",
      "address": "銀座5-9-18 丸江ビル1階",
      "phoneNumber": "03-3571-2321",
      "businessCategory": "呉服",
      "businessCategoryCode": 2,
      "district": "銀座",
      "isLargeRetailer": false,
      "coordinate": {
        "latitude": 35.6703648,
        "longitude": 139.765218
      }
    },
    {
      "name": "ボンジュール",
      "address": "銀座5-13-2 長岡ビルB1",
      "phoneNumber": "03-3541-2905",
      "businessCategory": "アクセサリーと夢小物",
      "businessCategoryCode": 1,
      "district": "銀座",
      "isLargeRetailer": false,
      "coordinate": {
        "latitude": 35.6691741,
        "longitude": 139.7672147
      }
    },
    {
      "name": "岩崎眼鏡店",
      "address": "銀座6-9-4",
      "phoneNumber": "03-3571-0319",
      "businessCategory": "眼鏡",
      "businessCategoryCode": 6,
      "district": "銀座",
      "isLargeRetailer": false,
      "coordinate": {
        "latitude": 35.6702009,
        "longitude": 139.7636433
      }
    },
    {
      "name": "銀座ヨシノヤ銀座六丁目本店",
      "address": "銀座6-9-6",
      "phoneNumber": "03-3572-0391",
      "businessCategory": "靴",
      "businessCategoryCode": 2,
      "district": "銀座",
      "isLargeRetailer": false,
      "coordinate": {
        "latitude": 35.670055,
        "longitude": 139.7634572
      }
    },
    {
      "name": "銀座かねまつ６丁目本店",
      "address": "銀座6-9-9",
      "phoneNumber": "03-3573-0077",
      "businessCategory": "婦人靴・ハンドバッグ",
      "businessCategoryCode": 2,
      "district": "銀座",
      "isLargeRetailer": false,
      "coordinate": {
        "latitude": 35.6697439,
        "longitude": 139.76313
      }
    },
    {
      "name": "東京真珠",
      "address": "銀座6-16-3",
      "phoneNumber": "03-3541-5555",
      "businessCategory": "宝飾品",
      "businessCategoryCode": 7,
      "district": "銀座",
      "isLargeRetailer": false,
      "coordinate": {
        "latitude": 35.6678208,
        "longitude": 139.7659211
      }
    },
    {
      "name": "ボンボンウォッチ銀座店",
      "address": "銀座7-6-12 第五ポールスタービル",
      "phoneNumber": "03-3289-0016",
      "businessCategory": "衣類・その他洋品",
      "businessCategoryCode": 2,
      "district": "銀座",
      "isLargeRetailer": false,
      "coordinate": {
        "latitude": 35.6693771,
        "longitude": 139.7612547
      }
    },
    {
      "name": "テーラーフクオカ 銀座店",
      "address": "銀座8-6-15 銀座グランドホテル1階",
      "phoneNumber": "03-3289-1529",
      "businessCategory": "服飾",
      "businessCategoryCode": 2,
      "district": "銀座",
      "isLargeRetailer": false,
      "coordinate": {
        "latitude": 35.66825559999999,
        "longitude": 139.7601791
      }
    },
    {
      "name": "銀座大和屋",
      "address": "銀座8-7先 銀座ナイン2号館1階",
      "phoneNumber": "03-3571-0744",
      "businessCategory": "ハンドバッグ・小物・財布",
      "businessCategoryCode": 2,
      "district": "銀座",
      "isLargeRetailer": false,
      "coordinate": {
        "latitude": 35.6677346,
        "longitude": 139.7603571
      }
    },
    {
      "name": "婦人洋品たけや",
      "address": "銀座8-7先 銀座ナイン2号館1階",
      "phoneNumber": "03-3571-3797",
      "businessCategory": "婦人洋品",
      "businessCategoryCode": 2,
      "district": "銀座",
      "isLargeRetailer": false,
      "coordinate": {
        "latitude": 35.6677346,
        "longitude": 139.7603571
      }
    },
    {
      "name": "銀座ぜん屋",
      "address": "銀座8-8-1",
      "phoneNumber": "03-3571-3468",
      "businessCategory": "履物・傘",
      "businessCategoryCode": 2,
      "district": "銀座",
      "isLargeRetailer": false,
      "coordinate": {
        "latitude": 35.6686502,
        "longitude": 139.7617488
      }
    },
    {
      "name": "メガネの田中チェーン㈱アイアイ銀座店",
      "address": "銀座8-8-7",
      "phoneNumber": "03-3571-9037",
      "businessCategory": "メガネ",
      "businessCategoryCode": 6,
      "district": "銀座",
      "isLargeRetailer": false,
      "coordinate": {
        "latitude": 35.6681819,
        "longitude": 139.7616095
      }
    },
    {
      "name": "伊勢由本店",
      "address": "銀座8-8-19",
      "phoneNumber": "03-3572-2738",
      "businessCategory": "呉服",
      "businessCategoryCode": 2,
      "district": "銀座",
      "isLargeRetailer": false,
      "coordinate": {
        "latitude": 35.6685422,
        "longitude": 139.76155
      }
    },
    {
      "name": "銀座いせよし",
      "address": "銀座8-10-3 銀座美鈴ビル6F",
      "phoneNumber": "03-6228-5875",
      "businessCategory": "呉服",
      "businessCategoryCode": 2,
      "district": "銀座",
      "isLargeRetailer": false,
      "coordinate": {
        "latitude": 35.6679846,
        "longitude": 139.7626384
      }
    },
    {
      "name": "アシックス商事㈱アシックスウォーキング銀座インズ店",
      "address": "銀座西2−2先 銀座インズ2 1階",
      "phoneNumber": "03-3562-5355",
      "businessCategory": "靴",
      "businessCategoryCode": 2,
      "district": "銀座",
      "isLargeRetailer": false,
      "coordinate": {
        "latitude": 35.6695704,
        "longitude": 139.7593879
      }
    },
    {
      "name": "なかや",
      "address": "新富1-19-6",
      "phoneNumber": "03-3551-2493",
      "businessCategory": "呉服店",
      "businessCategoryCode": 2,
      "district": "",
      "isLargeRetailer": false,
      "coordinate": {
        "latitude": 35.6731015,
        "longitude": 139.7759411
      }
    },
    {
      "name": "大野屋總本店",
      "address": "新富2-2-1",
      "phoneNumber": "03-3551-0896",
      "businessCategory": "足袋・和装雑貨",
      "businessCategoryCode": 2,
      "district": "",
      "isLargeRetailer": false,
      "coordinate": {
        "latitude": 35.6721199,
        "longitude": 139.7726789
      }
    },
    {
      "name": "赤ちゃん屋洋品店",
      "address": "月島1-10-5",
      "phoneNumber": "03-3533-2468",
      "businessCategory": "婦人服",
      "businessCategoryCode": 2,
      "district": "月島",
      "isLargeRetailer": false,
      "coordinate": {
        "latitude": 35.66442620000001,
        "longitude": 139.7824502
      }
    },
    {
      "name": "なかや洋品店",
      "address": "月島1-22-1-119",
      "phoneNumber": "03-3531-1843",
      "businessCategory": "洋品",
      "businessCategoryCode": 2,
      "district": "月島",
      "isLargeRetailer": false,
      "coordinate": {
        "latitude": 35.6637154,
        "longitude": 139.7818127
      }
    },
    {
      "name": "㈱あさひや",
      "address": "月島3-4-7",
      "phoneNumber": "03-3533-6331",
      "businessCategory": "婦人服・呉服",
      "businessCategoryCode": 2,
      "district": "月島",
      "isLargeRetailer": false,
      "coordinate": {
        "latitude": 35.6634262,
        "longitude": 139.7809443
      }
    },
    {
      "name": "あづまや",
      "address": "月島3-17-10",
      "phoneNumber": "03-3531-0926",
      "businessCategory": "和装履物",
      "businessCategoryCode": 2,
      "district": "月島",
      "isLargeRetailer": false,
      "coordinate": {
        "latitude": 35.6627525,
        "longitude": 139.7804378
      }
    },
    {
      "name": "呉服せすみ",
      "address": "築地6-8-5",
      "phoneNumber": "03-3541-0987",
      "businessCategory": "呉服・和装小物",
      "businessCategoryCode": 2,
      "district": "築地",
      "isLargeRetailer": false,
      "coordinate": {
        "latitude": 35.664707,
        "longitude": 139.7733693
      }
    },
    {
      "name": "フィットちゃんランドセル／HUGLM東京八重洲ショールーム",
      "address": "日本橋3-4-16 東和八重洲ビル（旧：春陽堂ビル）8階",
      "phoneNumber": "03-6262-1335",
      "businessCategory": "ランドセル・抱っこ紐",
      "businessCategoryCode": 7,
      "district": "日本橋",
      "isLargeRetailer": false,
      "coordinate": {
        "latitude": 35.6799978,
        "longitude": 139.7706709
      }
    },
    {
      "name": "Ｔａｎｇｏ２４５",
      "address": "日本橋蛎殻町1-30-11 ヨートービル5F",
      "phoneNumber": "070-6479-9888",
      "businessCategory": "紳士服・靴・鞄ほか洋品",
      "businessCategoryCode": 2,
      "district": "日本橋",
      "isLargeRetailer": false,
      "coordinate": {
        "latitude": 35.6826994,
        "longitude": 139.7841595
      }
    },
    {
      "name": "エルベート ロイヤルパークホテル店",
      "address": "日本橋蛎殻町2丁目1-1 ロイヤルパークホテルB2F",
      "phoneNumber": "03-5623-5255",
      "businessCategory": "婦人服",
      "businessCategoryCode": 2,
      "district": "日本橋",
      "isLargeRetailer": false,
      "coordinate": {
        "latitude": 35.6823199,
        "longitude": 139.7866324
      }
    },
    {
      "name": "竺仙",
      "address": "日本橋小舟町2-3",
      "phoneNumber": "03-5202-0991",
      "businessCategory": "着物、浴衣、帯、和小物販売",
      "businessCategoryCode": 2,
      "district": "日本橋",
      "isLargeRetailer": false,
      "coordinate": {
        "latitude": 35.6862348,
        "longitude": 139.7778017
      }
    },
    {
      "name": "伊場仙",
      "address": "日本橋小舟町4-1",
      "phoneNumber": "03-3664-9261",
      "businessCategory": "扇子・団扇・紙製品",
      "businessCategoryCode": 7,
      "district": "日本橋",
      "isLargeRetailer": false,
      "coordinate": {
        "latitude": 35.6875358,
        "longitude": 139.7772492
      }
    },
    {
      "name": "YOUTA",
      "address": "日本橋小網町7-8 日本橋ウィンテルビル１F",
      "phoneNumber": "03-6206-2793",
      "businessCategory": "鞄店",
      "businessCategoryCode": 2,
      "district": "日本橋",
      "isLargeRetailer": false,
      "coordinate": {
        "latitude": 35.6822685,
        "longitude": 139.7812036
      }
    },
    {
      "name": "ＨＡＲＩＯ ランプワークファクトリー",
      "address": "日本橋大伝馬町2-10 イワサキ第三ビル",
      "phoneNumber": "03-5623-2143",
      "businessCategory": "アクセサリーショップ",
      "businessCategoryCode": 1,
      "district": "日本橋",
      "isLargeRetailer": false,
      "coordinate": {
        "latitude": 35.6897924,
        "longitude": 139.7783565
      }
    },
    {
      "name": "立花屋呉服店",
      "address": "日本橋人形町1-14-6",
      "phoneNumber": "03-3666-3644",
      "businessCategory": "呉服",
      "businessCategoryCode": 2,
      "district": "日本橋",
      "isLargeRetailer": false,
      "coordinate": {
        "latitude": 35.6841429,
        "longitude": 139.7838808
      }
    },
    {
      "name": "東京メガネ日本橋人形町店",
      "address": "日本橋人形町1-18-9 A.Tビル102",
      "phoneNumber": "03-3661-2906",
      "businessCategory": "メガネの販売",
      "businessCategoryCode": 6,
      "district": "日本橋",
      "isLargeRetailer": false,
      "coordinate": {
        "latitude": 35.6855956,
        "longitude": 139.7826506
      }
    },
    {
      "name": "マタニティーショップジョリー",
      "address": "日本橋人形町2-3-2",
      "phoneNumber": "03-3666-7219",
      "businessCategory": "マタニティー",
      "businessCategoryCode": 2,
      "district": "日本橋",
      "isLargeRetailer": false,
      "coordinate": {
        "latitude": 35.685091,
        "longitude": 139.7836687
      }
    },
    {
      "name": "ヒラマツ靴店",
      "address": "日本橋人形町2-3-4",
      "phoneNumber": "03-3666-8979",
      "businessCategory": "靴",
      "businessCategoryCode": 2,
      "district": "日本橋",
      "isLargeRetailer": false,
      "coordinate": {
        "latitude": 35.6851721,
        "longitude": 139.7837427
      }
    },
    {
      "name": "ＴＨＲＥＥ ＲＯＳＥＳ",
      "address": "日本橋人形町2-20-6 KMビル1階",
      "phoneNumber": "03-3639-8917",
      "businessCategory": "バラ雑貨・アクセサリー",
      "businessCategoryCode": 1,
      "district": "日本橋",
      "isLargeRetailer": false,
      "coordinate": {
        "latitude": 35.6859483,
        "longitude": 139.7850796
      }
    },
    {
      "name": "日本橋ゆうま",
      "address": "日本橋人形町2-32-5",
      "phoneNumber": "03-3808-1780",
      "businessCategory": "和装小物袋物、民芸品",
      "businessCategoryCode": 1,
      "district": "日本橋",
      "isLargeRetailer": false,
      "coordinate": {
        "latitude": 35.6862713,
        "longitude": 139.7856189
      }
    },
    {
      "name": "Sakura Nihombashi",
      "address": "日本橋人形町2-34-12 1階",
      "phoneNumber": "03-6661-0166",
      "businessCategory": "セレクトショップ",
      "businessCategoryCode": 2,
      "district": "日本橋",
      "isLargeRetailer": false,
      "coordinate": {
        "latitude": 35.6854092,
        "longitude": 139.7859282
      }
    },
    {
      "name": "風呂敷専門店 東京唐草屋",
      "address": "日本橋人形町3-4-6 宮井江戸ビル1F",
      "phoneNumber": "03-3661-3938",
      "businessCategory": "和雑貨販売",
      "businessCategoryCode": 1,
      "district": "日本橋",
      "isLargeRetailer": false,
      "coordinate": {
        "latitude": 35.6863077,
        "longitude": 139.780938
      }
    },
    {
      "name": "株式会社ライツスタイル",
      "address": "日本橋人形町3-5-2 ルート人形町ビル4階",
      "phoneNumber": "03-3665-3456",
      "businessCategory": "クリスタル装飾品製作・販売",
      "businessCategoryCode": 7,
      "district": "日本橋",
      "isLargeRetailer": false,
      "coordinate": {
        "latitude": 35.6865766,
        "longitude": 139.7804379
      }
    },
    {
      "name": "三上タオル株式会社",
      "address": "日本橋馬喰町1-5-5",
      "phoneNumber": "03-3663-3621",
      "businessCategory": "タオル製品販売",
      "businessCategoryCode": 7,
      "district": "日本橋",
      "isLargeRetailer": false,
      "coordinate": {
        "latitude": 35.6923724,
        "longitude": 139.7815231
      }
    },
    {
      "name": "㈱小笠原商店",
      "address": "日本橋箱崎町35-9",
      "phoneNumber": "03-3669-2181",
      "businessCategory": "繊維製品",
      "businessCategoryCode": 2,
      "district": "日本橋",
      "isLargeRetailer": false,
      "coordinate": {
        "latitude": 35.6806428,
        "longitude": 139.788301
      }
    },
    {
      "name": "ランパスアウトドアライフ",
      "address": "日本橋浜町2-5-7",
      "phoneNumber": "03-4400-9593",
      "businessCategory": "釣具・アウトドアウェア・雑貨",
      "businessCategoryCode": 7,
      "district": "日本橋",
      "isLargeRetailer": false,
      "coordinate": {
        "latitude": 35.68663129999999,
        "longitude": 139.7865248
      }
    },
    {
      "name": "オーダースーツファクトリー",
      "address": "日本橋浜町2-22-3",
      "phoneNumber": "03-3664-1122",
      "businessCategory": "オーダースーツの販売",
      "businessCategoryCode": 2,
      "district": "日本橋",
      "isLargeRetailer": false,
      "coordinate": {
        "latitude": 35.6858103,
        "longitude": 139.7874239
      }
    },
    {
      "name": "寺尾靴商会",
      "address": "日本橋浜町2-24-9",
      "phoneNumber": "03-3666-5912",
      "businessCategory": "靴小売(注文・修理等)",
      "businessCategoryCode": 2,
      "district": "日本橋",
      "isLargeRetailer": false,
      "coordinate": {
        "latitude": 35.6859666,
        "longitude": 139.7885301
      }
    },
    {
      "name": "ベッテンスタジオ",
      "address": "日本橋浜町2-42-9 浜町中央ビル1階",
      "phoneNumber": "03-3662-4842",
      "businessCategory": "羽毛布団・・毛布",
      "businessCategoryCode": 5,
      "district": "日本橋",
      "isLargeRetailer": false,
      "coordinate": {
        "latitude": 35.6879792,
        "longitude": 139.787703
      }
    },
    {
      "name": "すぎっこ会",
      "address": "日本橋久松町4-6 杉山ビル1～3階",
      "phoneNumber": "03-3663-7071",
      "businessCategory": "子供服・ベビー用品 呉服等",
      "businessCategoryCode": 2,
      "district": "日本橋",
      "isLargeRetailer": false,
      "coordinate": {
        "latitude": 35.6902416,
        "longitude": 139.7838032
      }
    },
    {
      "name": "ＡＹＡＭＥ日本橋堀留町店",
      "address": "日本橋堀留町1-5-7 YOUビル2F-2A号",
      "phoneNumber": "050-1746-3477",
      "businessCategory": "オーダーメイドパンプス",
      "businessCategoryCode": 2,
      "district": "日本橋",
      "isLargeRetailer": false,
      "coordinate": {
        "latitude": 35.6877489,
        "longitude": 139.7795568
      }
    },
    {
      "name": "ＳＨＯＥＳＭＡＴＥ人形町店",
      "address": "日本橋堀留町2-3-4 堀留寿ビル1F",
      "phoneNumber": "03-5643-1005",
      "businessCategory": "衣類",
      "businessCategoryCode": 2,
      "district": "日本橋",
      "isLargeRetailer": false,
      "coordinate": {
        "latitude": 35.6888116,
        "longitude": 139.7803167
      }
    },
    {
      "name": "メガネのパリミキ日本橋本店",
      "address": "日本橋室町2-4-3 日本橋室町野村ビルYUITO 1F",
      "phoneNumber": "03-3242-3571",
      "businessCategory": "眼鏡小売業",
      "businessCategoryCode": 6,
      "district": "日本橋",
      "isLargeRetailer": false,
      "coordinate": {
        "latitude": 35.68734,
        "longitude": 139.7739343
      }
    },
    {
      "name": "ＲＥＧＡＬ日本橋店",
      "address": "日本橋室町3-3-3 CMビル1F",
      "phoneNumber": "03-5203-2121",
      "businessCategory": "紳士靴・婦人靴店",
      "businessCategoryCode": 2,
      "district": "日本橋",
      "isLargeRetailer": false,
      "coordinate": {
        "latitude": 35.6879218,
        "longitude": 139.77351
      }
    },
    {
      "name": "HERENESS TOKYO",
      "address": "日本橋横山町4-10 大原第5ビルA",
      "phoneNumber": "0120-560-799",
      "businessCategory": "スポーツウエア",
      "businessCategoryCode": 2,
      "district": "日本橋",
      "isLargeRetailer": false,
      "coordinate": {
        "latitude": 35.6920716,
        "longitude": 139.782619
      }
    },
    {
      "name": "株式会社マンウ",
      "address": "日本橋横山町5-7",
      "phoneNumber": "03-3661-5033",
      "businessCategory": "帽子",
      "businessCategoryCode": 2,
      "district": "日本橋",
      "isLargeRetailer": false,
      "coordinate": {
        "latitude": 35.6926505,
        "longitude": 139.7833738
      }
    },
    {
      "name": "トップエース株式会社",
      "address": "東日本橋3-3-7 近江会館ビル 1階",
      "phoneNumber": "03-3662-3561",
      "businessCategory": "ランドセル販売",
      "businessCategoryCode": 7,
      "district": "日本橋",
      "isLargeRetailer": false,
      "coordinate": {
        "latitude": 35.6916004,
        "longitude": 139.7826316
      }
    },
    {
      "name": "有限会社ビッグ・バン",
      "address": "東日本橋3-12-1",
      "phoneNumber": "03-6264-8644",
      "businessCategory": "婦人服小売",
      "businessCategoryCode": 2,
      "district": "日本橋",
      "isLargeRetailer": false,
      "coordinate": {
        "latitude": 35.6925299,
        "longitude": 139.7845895
      }
    },
    {
      "name": "オリミネベーカーズ 勝どき店",
      "address": "勝どき3-6-3",
      "phoneNumber": "03-5144-5977",
      "businessCategory": "パン",
      "businessCategoryCode": 3,
      "district": "勝どき",
      "isLargeRetailer": false,
      "coordinate": {
        "latitude": 35.6583467,
        "longitude": 139.7757414
      }
    },
    {
      "name": "ルエールサンク（le R cinq）",
      "address": "京橋2-18-2 明海京橋ビル1F",
      "phoneNumber": "03-3538-3368",
      "businessCategory": "ケーキ",
      "businessCategoryCode": 3,
      "district": "京橋",
      "isLargeRetailer": false,
      "coordinate": {
        "latitude": 35.6752696,
        "longitude": 139.7727783
      }
    },
    {
      "name": "㈱銀座コージーコーナー銀座一丁目店",
      "address": "銀座1-8-1 池田園ビル",
      "phoneNumber": "03-3567-5015",
      "businessCategory": "洋菓子・レストラン",
      "businessCategoryCode": 3,
      "district": "銀座",
      "isLargeRetailer": false,
      "coordinate": {
        "latitude": 35.6746538,
        "longitude": 139.7689363
      }
    },
    {
      "name": "東京風月堂銀座本店",
      "address": "銀座2-6-8 日生ビル",
      "phoneNumber": "03-3567-3611",
      "businessCategory": "洋菓子販売・喫茶",
      "businessCategoryCode": 3,
      "district": "銀座",
      "isLargeRetailer": false,
      "coordinate": {
        "latitude": 35.6733476,
        "longitude": 139.7669307
      }
    },
    {
      "name": "銀座メゾン アンリ・シャルパンティエ",
      "address": "銀座2-8-20 ヨネイビル1F･B1F",
      "phoneNumber": "03-3562-2721",
      "businessCategory": "洋菓子店",
      "businessCategoryCode": 3,
      "district": "銀座",
      "isLargeRetailer": false,
      "coordinate": {
        "latitude": 35.673334,
        "longitude": 139.7681813
      }
    },
    {
      "name": "SWAN銀座ベーカリー",
      "address": "銀座2-12-16",
      "phoneNumber": "03-3543-1067",
      "businessCategory": "パン・レストラン事業",
      "businessCategoryCode": 3,
      "district": "銀座",
      "isLargeRetailer": false,
      "coordinate": {
        "latitude": 35.6718006,
        "longitude": 139.7696106
      }
    },
    {
      "name": "松﨑煎餅 銀座本店",
      "address": "銀座3-14-15",
      "phoneNumber": "03-6264-6726",
      "businessCategory": "菓子",
      "businessCategoryCode": 3,
      "district": "銀座",
      "isLargeRetailer": false,
      "coordinate": {
        "latitude": 35.6700779,
        "longitude": 139.7693583
      }
    },
    {
      "name": "㈱不二家数寄屋橋店",
      "address": "銀座4-2-12",
      "phoneNumber": "03-3561-0083",
      "businessCategory": "洋菓子",
      "businessCategoryCode": 3,
      "district": "銀座",
      "isLargeRetailer": false,
      "coordinate": {
        "latitude": 35.6725255,
        "longitude": 139.7636965
      }
    },
    {
      "name": "㈱銀座木村家",
      "address": "銀座4-5-7",
      "phoneNumber": "03-3561-0091",
      "businessCategory": "パン・レストラン",
      "businessCategoryCode": 3,
      "district": "銀座",
      "isLargeRetailer": false,
      "coordinate": {
        "latitude": 35.6717027,
        "longitude": 139.765218
      }
    },
    {
      "name": "FRIANDS GALLERY",
      "address": "銀座4-10-1 HOLON-GINZA 1F",
      "phoneNumber": "03-4400-5491",
      "businessCategory": "フィナンシェ専門店",
      "businessCategoryCode": 3,
      "district": "銀座",
      "isLargeRetailer": false,
      "coordinate": {
        "latitude": 35.6707851,
        "longitude": 139.7675612
      }
    },
    {
      "name": "㈱文明堂銀座店 東銀座店",
      "address": "銀座4-13-11",
      "phoneNumber": "03-3543-0002",
      "businessCategory": "菓子",
      "businessCategoryCode": 3,
      "district": "銀座",
      "isLargeRetailer": false,
      "coordinate": {
        "latitude": 35.6689535,
        "longitude": 139.7681318
      }
    },
    {
      "name": "ピエールマルコリーニ 銀座店",
      "address": "銀座5-5-8",
      "phoneNumber": "03-3248-0450",
      "businessCategory": "洋菓子販売・喫茶",
      "businessCategoryCode": 3,
      "district": "銀座",
      "isLargeRetailer": false,
      "coordinate": {
        "latitude": 35.6711396,
        "longitude": 139.7634574
      }
    },
    {
      "name": "銀座あけぼの 銀座本店",
      "address": "銀座5-7-19",
      "phoneNumber": "03-3571-3640",
      "businessCategory": "菓子",
      "businessCategoryCode": 3,
      "district": "銀座",
      "isLargeRetailer": false,
      "coordinate": {
        "latitude": 35.6712996,
        "longitude": 139.7645
      }
    },
    {
      "name": "㈱菊廼舎本店",
      "address": "銀座5-9-17 銀座あづまビル1階",
      "phoneNumber": "03-3571-4095",
      "businessCategory": "和菓子",
      "businessCategoryCode": 3,
      "district": "銀座",
      "isLargeRetailer": false,
      "coordinate": {
        "latitude": 35.6702343,
        "longitude": 139.7651975
      }
    },
    {
      "name": "俺のGrandMarket 銀座歌舞伎座前",
      "address": "銀座5-13-19 デュープレックスタワー5/13 1F･2F",
      "phoneNumber": "03-6264-2602",
      "businessCategory": "パン・カフェ",
      "businessCategoryCode": 3,
      "district": "銀座",
      "isLargeRetailer": false,
      "coordinate": {
        "latitude": 35.6692561,
        "longitude": 139.7671092
      }
    },
    {
      "name": "銀座近江屋洋菓子店 銀座本店",
      "address": "銀座7-6-7",
      "phoneNumber": "03-3572-4062",
      "businessCategory": "洋菓子製造販売",
      "businessCategoryCode": 3,
      "district": "銀座",
      "isLargeRetailer": false,
      "coordinate": {
        "latitude": 35.6694966,
        "longitude": 139.7617364
      }
    },
    {
      "name": "㈱清月堂本店",
      "address": "銀座7-16-15",
      "phoneNumber": "03-3541-5588",
      "businessCategory": "菓子",
      "businessCategoryCode": 3,
      "district": "銀座",
      "isLargeRetailer": false,
      "coordinate": {
        "latitude": 35.6666589,
        "longitude": 139.7650725
      }
    },
    {
      "name": "資生堂パーラー銀座本店ショップ",
      "address": "銀座8-8-3 東京銀座資生堂ビル1階",
      "phoneNumber": "03-3572-2147",
      "businessCategory": "食品",
      "businessCategoryCode": 3,
      "district": "銀座",
      "isLargeRetailer": false,
      "coordinate": {
        "latitude": 35.6685784,
        "longitude": 139.7619023
      }
    },
    {
      "name": "翠江堂",
      "address": "新川2-17-13",
      "phoneNumber": "03-3551-5728",
      "businessCategory": "和生菓子",
      "businessCategoryCode": 3,
      "district": "新川",
      "isLargeRetailer": false,
      "coordinate": {
        "latitude": 35.6749578,
        "longitude": 139.7820046
      }
    },
    {
      "name": "Litus",
      "address": "新富2-9-6 網代ビル1F",
      "phoneNumber": "03-6275-2797",
      "businessCategory": "洋菓子店",
      "businessCategoryCode": 3,
      "district": "",
      "isLargeRetailer": false,
      "coordinate": {
        "latitude": 35.6709886,
        "longitude": 139.774091
      }
    },
    {
      "name": "東京メロンパン月島店",
      "address": "月島1-6-11",
      "phoneNumber": "090-7402-1904",
      "businessCategory": "パン",
      "businessCategoryCode": 3,
      "district": "月島",
      "isLargeRetailer": false,
      "coordinate": {
        "latitude": 35.6642649,
        "longitude": 139.7825882
      }
    },
    {
      "name": "㈲古埜木堂",
      "address": "月島1-6-12",
      "phoneNumber": "03-3531-1062",
      "businessCategory": "菓子",
      "businessCategoryCode": 3,
      "district": "月島",
      "isLargeRetailer": false,
      "coordinate": {
        "latitude": 35.6642861,
        "longitude": 139.7826211
      }
    },
    {
      "name": "ＹＵＮＩＶＥＲＳＯ",
      "address": "月島1-10-4",
      "phoneNumber": "03-5542-0797",
      "businessCategory": "菓子・パン",
      "businessCategoryCode": 3,
      "district": "月島",
      "isLargeRetailer": false,
      "coordinate": {
        "latitude": 35.6644466,
        "longitude": 139.7824818
      }
    },
    {
      "name": "焼きたてメロンパン月島久栄",
      "address": "月島1-21-3",
      "phoneNumber": "03-3534-0298",
      "businessCategory": "メロンパン",
      "businessCategoryCode": 3,
      "district": "月島",
      "isLargeRetailer": false,
      "coordinate": {
        "latitude": 35.6639102,
        "longitude": 139.7817988
      }
    },
    {
      "name": "パティスリーハット",
      "address": "月島2-14-9",
      "phoneNumber": "03-5560-9802",
      "businessCategory": "洋菓子店",
      "businessCategoryCode": 3,
      "district": "月島",
      "isLargeRetailer": false,
      "coordinate": {
        "latitude": 35.6624628,
        "longitude": 139.7828221
      }
    },
    {
      "name": "㈲喜久乃家",
      "address": "月島3-17-5",
      "phoneNumber": "03-3532-2525",
      "businessCategory": "和菓子製造販売",
      "businessCategoryCode": 3,
      "district": "月島",
      "isLargeRetailer": false,
      "coordinate": {
        "latitude": 35.6623673,
        "longitude": 139.7806652
      }
    },
    {
      "name": "もち吉 東京銀座本店",
      "address": "築地1-13-14 NBF東銀座スクエアビル1階",
      "phoneNumber": "03-6226-4520",
      "businessCategory": "せんべい・あられ販売",
      "businessCategoryCode": 3,
      "district": "築地",
      "isLargeRetailer": false,
      "coordinate": {
        "latitude": 35.6678195,
        "longitude": 139.7697207
      }
    },
    {
      "name": "Rockado Factory",
      "address": "築地2-14-4 フェニックス東銀座第２ビル1階",
      "phoneNumber": "03-5565-0677",
      "businessCategory": "菓子",
      "businessCategoryCode": 3,
      "district": "築地",
      "isLargeRetailer": false,
      "coordinate": {
        "latitude": 35.6675422,
        "longitude": 139.7708099
      }
    },
    {
      "name": "オリミネベーカーズ 築地７丁目店",
      "address": "築地7-10-11",
      "phoneNumber": "03-6228-4555",
      "businessCategory": "パン",
      "businessCategoryCode": 3,
      "district": "築地",
      "isLargeRetailer": false,
      "coordinate": {
        "latitude": 35.6659871,
        "longitude": 139.7751087
      }
    },
    {
      "name": "Ｒｏｏｍ Ｆｏｒ Ｃａｋｅ ｂｙ Ｎｉｉｎａ",
      "address": "築地7-15-7",
      "phoneNumber": "03-3547-6221",
      "businessCategory": "菓子製造 販売",
      "businessCategoryCode": 3,
      "district": "築地",
      "isLargeRetailer": false,
      "coordinate": {
        "latitude": 35.6649056,
        "longitude": 139.7748671
      }
    },
    {
      "name": "栄太樓總本鋪 本店",
      "address": "日本橋1-2-5 栄太楼ビル1階",
      "phoneNumber": "03-3271-7785",
      "businessCategory": "菓子",
      "businessCategoryCode": 3,
      "district": "日本橋",
      "isLargeRetailer": false,
      "coordinate": {
        "latitude": 35.6832584,
        "longitude": 139.7734116
      }
    },
    {
      "name": "㈱虎屋日本橋店",
      "address": "日本橋1-2-6",
      "phoneNumber": "03-3271-8856",
      "businessCategory": "食品",
      "businessCategoryCode": 3,
      "district": "日本橋",
      "isLargeRetailer": false,
      "coordinate": {
        "latitude": 35.6833892,
        "longitude": 139.7738341
      }
    },
    {
      "name": "ベーカリーポム",
      "address": "日本橋小舟町1-4 小田ビル1階",
      "phoneNumber": "03-3661-8064",
      "businessCategory": "菓子パン",
      "businessCategoryCode": 3,
      "district": "日本橋",
      "isLargeRetailer": false,
      "coordinate": {
        "latitude": 35.6855341,
        "longitude": 139.7781259
      }
    },
    {
      "name": "銀座近江屋洋菓子店 茅場町店",
      "address": "日本橋茅場町2-3-8",
      "phoneNumber": "03-3668-5629",
      "businessCategory": "洋菓子製造販売",
      "businessCategoryCode": 3,
      "district": "日本橋",
      "isLargeRetailer": false,
      "coordinate": {
        "latitude": 35.6789119,
        "longitude": 139.7773588
      }
    },
    {
      "name": "日本橋錦豊琳 小伝馬町本店",
      "address": "日本橋小伝馬町16-14",
      "phoneNumber": "03-6661-1472",
      "businessCategory": "かりんとう、米菓",
      "businessCategoryCode": 3,
      "district": "日本橋",
      "isLargeRetailer": false,
      "coordinate": {
        "latitude": 35.6923536,
        "longitude": 139.7800877
      }
    },
    {
      "name": "Hiromi & Co. Patisserie",
      "address": "日本橋大伝馬町14-8 岩並ビル1階",
      "phoneNumber": null,
      "businessCategory": "洋菓子店",
      "businessCategoryCode": 3,
      "district": "日本橋",
      "isLargeRetailer": false,
      "coordinate": {
        "latitude": 35.6917754,
        "longitude": 139.7809021
      }
    },
    {
      "name": "サンドウィッチパーラー まつむら",
      "address": "日本橋人形町1-14-4",
      "phoneNumber": "03-3666-3424",
      "businessCategory": "製パン",
      "businessCategoryCode": 3,
      "district": "日本橋",
      "isLargeRetailer": false,
      "coordinate": {
        "latitude": 35.68409520000001,
        "longitude": 139.783714
      }
    },
    {
      "name": "三原堂本店",
      "address": "日本橋人形町1-14-10",
      "phoneNumber": "03-3666-3333",
      "businessCategory": "菓子",
      "businessCategoryCode": 3,
      "district": "日本橋",
      "isLargeRetailer": false,
      "coordinate": {
        "latitude": 35.6840026,
        "longitude": 139.7842042
      }
    },
    {
      "name": "オリミネべーカーズ 人形町店",
      "address": "日本橋人形町1-19-6 中島牧野ビル1F",
      "phoneNumber": "03-3527-3110",
      "businessCategory": "パン屋",
      "businessCategoryCode": 3,
      "district": "日本橋",
      "isLargeRetailer": false,
      "coordinate": {
        "latitude": 35.68601719999999,
        "longitude": 139.7822665
      }
    },
    {
      "name": "㈱重盛永信堂",
      "address": "日本橋人形町2-1-1",
      "phoneNumber": "03-3666-5885",
      "businessCategory": "菓子",
      "businessCategoryCode": 3,
      "district": "日本橋",
      "isLargeRetailer": false,
      "coordinate": {
        "latitude": 35.6841242,
        "longitude": 139.784375
      }
    },
    {
      "name": "壽堂",
      "address": "日本橋人形町2-1-4",
      "phoneNumber": "03-3666-4804",
      "businessCategory": "和菓子製造販売",
      "businessCategoryCode": 3,
      "district": "日本橋",
      "isLargeRetailer": false,
      "coordinate": {
        "latitude": 35.6843847,
        "longitude": 139.7842694
      }
    },
    {
      "name": "たがやす人形町店",
      "address": "日本橋人形町2-2-3 堀口ビル1階",
      "phoneNumber": "03-6810-7930",
      "businessCategory": "菓子",
      "businessCategoryCode": 3,
      "district": "日本橋",
      "isLargeRetailer": false,
      "coordinate": {
        "latitude": 35.6847813,
        "longitude": 139.7839473
      }
    },
    {
      "name": "玉英堂",
      "address": "日本橋人形町2-3-2 玉英堂ビル1階",
      "phoneNumber": "03-3666-2625",
      "businessCategory": "和菓子",
      "businessCategoryCode": 3,
      "district": "日本橋",
      "isLargeRetailer": false,
      "coordinate": {
        "latitude": 35.685091,
        "longitude": 139.7836687
      }
    },
    {
      "name": "人形焼本舗 板倉屋",
      "address": "日本橋人形町2-4-2",
      "phoneNumber": "03-3667-4818",
      "businessCategory": "菓子",
      "businessCategoryCode": 3,
      "district": "日本橋",
      "isLargeRetailer": false,
      "coordinate": {
        "latitude": 35.6853964,
        "longitude": 139.7833596
      }
    },
    {
      "name": "御菓子司 縫月堂",
      "address": "日本橋人形町2-7-10 エル人形町ビル1階",
      "phoneNumber": "03-3666-6739",
      "businessCategory": "和生菓子",
      "businessCategoryCode": 3,
      "district": "日本橋",
      "isLargeRetailer": false,
      "coordinate": {
        "latitude": 35.6867634,
        "longitude": 139.7833274
      }
    },
    {
      "name": "京菓子司 彦九郎",
      "address": "日本橋人形町2-11-3",
      "phoneNumber": "03-3660-5533",
      "businessCategory": "和菓子製造販売",
      "businessCategoryCode": 3,
      "district": "日本橋",
      "isLargeRetailer": false,
      "coordinate": {
        "latitude": 35.6853416,
        "longitude": 139.783996
      }
    },
    {
      "name": "にんぎょう町草加屋",
      "address": "日本橋人形町2-20-5",
      "phoneNumber": "03-3666-7378",
      "businessCategory": "米菓",
      "businessCategoryCode": 3,
      "district": "日本橋",
      "isLargeRetailer": false,
      "coordinate": {
        "latitude": 35.6858415,
        "longitude": 139.7848386
      }
    },
    {
      "name": "Fruit Chef The SHOP",
      "address": "日本橋人形町3-6-3 コンフォーリア日本橋イースト1F",
      "phoneNumber": "03-6661-0826",
      "businessCategory": "飲食業・菓子販売業",
      "businessCategoryCode": 3,
      "district": "日本橋",
      "isLargeRetailer": false,
      "coordinate": {
        "latitude": 35.6870398,
        "longitude": 139.7812082
      }
    },
    {
      "name": "カカオ菓子suminoza",
      "address": "日本橋浜町2-1-5 ハウスデアタンネ101",
      "phoneNumber": "03-4400-9111",
      "businessCategory": "洋菓子小売り",
      "businessCategoryCode": 3,
      "district": "日本橋",
      "isLargeRetailer": false,
      "coordinate": {
        "latitude": 35.685655,
        "longitude": 139.787038
      }
    },
    {
      "name": "銀座あけぼの 日本橋浜町店",
      "address": "日本橋浜町2-6-1",
      "phoneNumber": "03-3667-1053",
      "businessCategory": "菓子",
      "businessCategoryCode": 3,
      "district": "日本橋",
      "isLargeRetailer": false,
      "coordinate": {
        "latitude": 35.6868535,
        "longitude": 139.7860824
      }
    },
    {
      "name": "Lumiere",
      "address": "日本橋浜町2丁目50－4 メゾンドヴィレ日本橋浜町101",
      "phoneNumber": "03-6206-2045",
      "businessCategory": "洋菓子小売り",
      "businessCategoryCode": 3,
      "district": "日本橋",
      "isLargeRetailer": false,
      "coordinate": {
        "latitude": 35.6862882,
        "longitude": 139.789133
      }
    },
    {
      "name": "ｎｅｌ ＣＲＡＦＴ ＣＨＯＣＯＬＡＴＥ ＴＯＫＹＯ",
      "address": "日本橋浜町3-20-2",
      "phoneNumber": "03-5643-7123",
      "businessCategory": "チョコレート店",
      "businessCategoryCode": 3,
      "district": "日本橋",
      "isLargeRetailer": false,
      "coordinate": {
        "latitude": 35.68464030000001,
        "longitude": 139.7893048
      }
    },
    {
      "name": "文明堂日本橋本店",
      "address": "日本橋室町1-13-7",
      "phoneNumber": "03-3241-0002",
      "businessCategory": "和菓子",
      "businessCategoryCode": 3,
      "district": "日本橋",
      "isLargeRetailer": false,
      "coordinate": {
        "latitude": 35.686431,
        "longitude": 139.77515
      }
    },
    {
      "name": "カワイイブレッド＆コーヒー",
      "address": "八丁堀2-30-16 T&Yビル1階",
      "phoneNumber": "03-3523-5040",
      "businessCategory": "パン販売・ベーカリーカフェ",
      "businessCategoryCode": 3,
      "district": "",
      "isLargeRetailer": false,
      "coordinate": {
        "latitude": 35.6759717,
        "longitude": 139.7788207
      }
    },
    {
      "name": "マツイノカヌレ東京本店",
      "address": "八丁堀3-27-14",
      "phoneNumber": "090-4014-0245",
      "businessCategory": "洋菓子",
      "businessCategoryCode": 3,
      "district": "",
      "isLargeRetailer": false,
      "coordinate": {
        "latitude": 35.6749441,
        "longitude": 139.7790052
      }
    },
    {
      "name": "紀文堂",
      "address": "東日本橋2-1-2",
      "phoneNumber": "03-3851-7501",
      "businessCategory": "菓子",
      "businessCategoryCode": 3,
      "district": "日本橋",
      "isLargeRetailer": false,
      "coordinate": {
        "latitude": 35.6914003,
        "longitude": 139.7850142
      }
    },